[
    {
      "id": "1",
      "city": "Adana",
      "district": "Feke",
      "name": "Feke İlçe Devlet Hastanesi",
      "type": "Devlet",
      "type-detail": "Entegre",
      "address": "İslam, 01660 Feke/Adana",
      "location": {
        "lat": "37.8163336",
        "lon": "35.9101129"
      }
    },
    {
      "id": "2",
      "city": "Adana",
      "district": "Saimbeyli",
      "name": "Saimbeyli Şehit Uzman Çavuş Adem Ambarcı İlçe Devlet Hastanesi",
      "type": "Devlet",
      "type-detail": "Entegre",
      "address": "Fatih, 01740 Saimbeyli/Adana",
      "location": {
        "lat": "37.9804715",
        "lon": "36.0731215"
      }
    },
    {
      "id": "3",
      "city": "Adana",
      "district": "Aladağ",
      "name": "Aladağ İlçe Devlet Hastanesi",
      "type": "Devlet",
      "type-detail": "Entegre",
      "address": "Sinnanpaşa mah. Sinanpaşa cad, Aladağ/Adana",
      "location": {
        "lat": "37.5451174",
        "lon": "35.3952179"
      }
    },
    {
      "id": "4",
      "city": "Adana",
      "district": "Yüreğir",
      "name": "Adana Şehir Hastanesi",
      "type": "Devlet",
      "type-detail": "Genel Hastane",
      "address": "Kışla Mahallesi, Dr. Mithat Özsan Bulvarı, 4522. Sokak No:28, Yüreğir/Adana",
      "location": {
        "lat": "37.0286375",
        "lon": "35.3377918"
      }
    },
    {
      "id": "5",
      "city": "Adana",
      "district": "Kozan",
      "name": "Kozan Devlet Hastanesi",
      "type": "Devlet",
      "type-detail": "Genel Hastane",
      "address": "Karacaoğlan, Feke Cd. No:1/150, 01510 Kozan/Adana",
      "location": {
        "lat": "37.4652665",
        "lon": "35.8149384"
      }
    },
    {
      "id": "6",
      "city": "Adana",
      "district": "Yüreğir",
      "name": "Adana Yüreğir Devlet Hastanesi",
      "type": "Devlet",
      "type-detail": "Genel Hastane",
      "address": "Serinevler, Ege Bagatur Cd No:236, 01240 Yüreğir/Adana",
      "location": {
        "lat": "37.0115139",
        "lon": "35.3442939"
      }
    },
    {
      "id": "7",
      "city": "Adana",
      "district": "Ceyhan",
      "name": "Ceyhan Devlet Hastanesi",
      "type": "Devlet",
      "type-detail": "Genel Hastane",
      "address": "Cumhuriyet Mah, Prof. Dr. Kemal Dal Cd. No:87, 01940 Ceyhan/Adana",
      "location": {
        "lat": "37.0182988",
        "lon": "35.8264754"
      }
    },
    {
      "id": "8",
      "city": "Adana",
      "district": "Karaisalı",
      "name": "Karaisalı Devlet Hastanesi",
      "type": "Devlet",
      "type-detail": "Genel Hastane",
      "address": "Yeni, 01780 Karaisalı/Adana",
      "location": {
        "lat": "37.2541566",
        "lon": "35.0508244"
      }
    },
    {
      "id": "9",
      "city": "Adana",
      "district": "İmamoğlu",
      "name": "İmamoğlu Devlet Hastanesi",
      "type": "Devlet",
      "type-detail": "Genel Hastane",
      "address": "Hürriyet, Şht. Osman Tatar Sk. D:30, 01700 İmamoğlu/Adana",
      "location": {
        "lat": "37.2518192",
        "lon": "35.6377272"
      }
    },
    {
      "id": "10",
      "city": "Adana",
      "district": "Tufanbeyli",
      "name": "Tufanbeyli Devlet Hastanesi",
      "type": "Devlet",
      "type-detail": "Genel Hastane",
      "address": "Cumhuriyet, Hastane Cd. No:13, 01640 Tufanbeyli/Adana",
      "location": {
        "lat": "38.2573937",
        "lon": "36.2035202"
      }
    },
    {
      "id": "11",
      "city": "Adana",
      "district": "Pozantı",
      "name": "Pozantı 80.yıl Devlet Hastanesi",
      "type": "Devlet",
      "type-detail": "Genel Hastane",
      "address": "Zafer, Hastane Cd., 01470 Pozantı/Adana",
      "location": {
        "lat": "37.4602188",
        "lon": "34.8631093"
      }
    },
    {
      "id": "12",
      "city": "Adana",
      "district": "Seyhan",
      "name": "Seyhan Devlet Hastanesi",
      "type": "Devlet",
      "type-detail": "Genel Hastane",
      "address": "Yenibaraj, Hacı Ömer Sabancı Cd, 01150 Seyhan/Adana",
      "location": {
        "lat": "37.0200315",
        "lon": "35.3084868"
      }
    },
    {
      "id": "13",
      "city": "Adana",
      "district": "Çukurova",
      "name": "Adana Çukurova Devlet Hastanesi",
      "type": "Devlet",
      "type-detail": "Genel Hastane",
      "address": "Kurttepe, 83027. Sk. no:4, 01170 Çukurova/Adana",
      "location": {
        "lat": "37.0602483",
        "lon": "35.2698549"
      }
    },
    {
      "id": "14",
      "city": "Adana",
      "district": "Seyhan",
      "name": "Özel Acıbadem Adana Hastanesi",
      "type": "Özel",
      "type-detail": "Özel Genel Hastane",
      "address": "Döşeme, Cumhuriyet Cd. No:66, 01130 Seyhan/Adana",
      "location": {
        "lat": "41.3124465",
        "lon": "27.9915148"
      }
    },
    {
      "id": "15",
      "city": "Adana",
      "district": "Seyhan",
      "name": "Özel Adana Hastanesi",
      "type": "Özel",
      "type-detail": "Özel Genel Hastane",
      "address": "Atatürk Cad. Büyükşehir Belediye Çarşısı No: 23 Seyhan/Adana",
      "location": {
        "lat": "37.0232838",
        "lon": "35.2073206"
      }
    },
    {
      "id": "16",
      "city": "Adana",
      "district": "Seyhan",
      "name": "Özel Adana Metro Hastanesi",
      "type": "Özel",
      "type-detail": "Özel Genel Hastane",
      "address": "Namık Kemal, Mustafa Kemal Paşa Blv. No:15, 01140 Seyhan/Adana",
      "location": {
        "lat": "41.3124465",
        "lon": "27.9915148"
      }
    },
    {
      "id": "17",
      "city": "Adana",
      "district": "Yüreğir",
      "name": "Özel Algomed Hastanesi",
      "type": "Özel",
      "type-detail": "Özel Genel Hastane",
      "address": "Sinanpaşa, Karşısı, Yüreğir Otogarı No:124 D:Z, 01260 Yüreğir/Adana",
      "location": {
        "lat": "41.3124465",
        "lon": "27.9915148"
      }
    },
    {
      "id": "18",
      "city": "Adana",
      "district": "Yüreğir",
      "name": "Özel Altınkoza Hastanesi",
      "type": "Özel",
      "type-detail": "Özel Genel Hastane",
      "address": "Tahsilli, Tren Yolu Yanı, Kozan Cad. No:321, 01240 Yüreğir/Adana",
      "location": {
        "lat": "41.3124465",
        "lon": "27.9915148"
      }
    },
    {
      "id": "19",
      "city": "Adana",
      "district": "Çukurova",
      "name": "Özel Avrupa Hospital Hastanesi",
      "type": "Özel",
      "type-detail": "Özel Genel Hastane",
      "address": "Toros, Şehitler Bulvarı No No:43, 01170 Çukurova/Adana",
      "location": {
        "lat": "38.6258018",
        "lon": "21.4142218"
      }
    },
    {
      "id": "20",
      "city": "Adana",
      "district": "Ceyhan",
      "name": "Özel Ceyhan Çınar Hastanesi",
      "type": "Özel",
      "type-detail": "Özel Genel Hastane",
      "address": "Namık Kemal, Cumhuriyet, Ebülfeyz Elçibey Cd. No:64, 01950 Ceyhan/Adana",
      "location": {
        "lat": "41.3124465",
        "lon": "27.9915148"
      }
    },
    {
      "id": "21",
      "city": "Adana",
      "district": "Çukurova",
      "name": "Özel Epc Hastanesi",
      "type": "Özel",
      "type-detail": "Özel Genel Hastane",
      "address": "100. Yıl Mah, Yüzüncüyıl Mh Carrefoursa AVM Yanı, 85019. Sk. No:8, 01360 Çukurova/Adana",
      "location": {
        "lat": "41.3124465",
        "lon": "27.9915148"
      }
    },
    {
      "id": "22",
      "city": "Adana",
      "district": "Seyhan",
      "name": "Özel Güney Adana Hastanesi",
      "type": "Özel",
      "type-detail": "Özel Genel Hastane",
      "address": "Dağlıoğlu, 14204. Sk. 5 A, 01040 Seyhan/Adana",
      "location": {
        "lat": "41.3124465",
        "lon": "27.9915148"
      }
    },
    {
      "id": "23",
      "city": "Adana",
      "district": "Çukurova",
      "name": "Özel Güzelyalı Hastanesi",
      "type": "Özel",
      "type-detail": "Özel Genel Hastane",
      "address": "Güzelyalı, 81119. Sk. No:2, 01170 Çukurova/Adana",
      "location": {
        "lat": "41.3124465",
        "lon": "27.9915148"
      }
    },
    {
      "id": "24",
      "city": "Adana",
      "district": "Kozan",
      "name": "Özel Kalepark Hastanesi",
      "type": "Özel",
      "type-detail": "Özel Genel Hastane",
      "address": "Şevkiye, Adana Cd No:1 No:3 D:3/A, 01500 Kozan/Adana",
      "location": {
        "lat": "41.3124465",
        "lon": "27.9915148"
      }
    },
    {
      "id": "25",
      "city": "Adana",
      "district": "Seyhan",
      "name": "Özel Ortadoğu Sağlık Hastanesi",
      "type": "Özel",
      "type-detail": "Özel Genel Hastane",
      "address": "Ziyapaşa, 67055. Sk. No:1, 01140 Seyhan/Adana",
      "location": {
        "lat": "41.3124465",
        "lon": "27.9915148"
      }
    },
    {
      "id": "26",
      "city": "Adana",
      "district": "Seyhan",
      "name": "Özel Ortopedia Hastanesi",
      "type": "Özel",
      "type-detail": "Özel Genel Hastane",
      "address": "Döşeme, Cumhuriyet Cd. No:64, 01130 Seyhan/Adana",
      "location": {
        "lat": "41.3124465",
        "lon": "27.9915148"
      }
    },
    {
      "id": "27",
      "city": "Adana",
      "district": "Çukurova",
      "name": "Özel Sezar Hospital Hastanesi",
      "type": "Özel",
      "type-detail": "Özel Genel Hastane",
      "address": "Toros, Kasım Ener Cd No:25, 01170 Çukurova/Adana",
      "location": {
        "lat": "41.3124465",
        "lon": "27.9915148"
      }
    },
    {
      "id": "28",
      "city": "Adana",
      "district": "Çukurova",
      "name": "Özelmedline Adana Hastanesi",
      "type": "Özel",
      "type-detail": "Özel Genel Hastane",
      "address": "Belediye Evleri, Turgut Özal Blv. No:234, 01170 Çukurova/Adana",
      "location": {
        "lat": "41.3124465",
        "lon": "27.9915148"
      }
    },
    {
      "id": "29",
      "city": "Adana",
      "district": "Seyhan",
      "name": "Özel Çukurova Göz Hastanesi",
      "type": "Özel",
      "type-detail": "Özel Göz Hastanesi",
      "address": "Yenibaraj, 68025. Sk. No:15, 01150 Seyhan/Adana",
      "location": {
        "lat": "41.3124465",
        "lon": "27.9915148"
      }
    },
    {
      "id": "30",
      "city": "Adana",
      "district": "Çukurova",
      "name": "Adana Dr.ekrem Tok Ruh Sağlığı Ve Hastalıkları Hastanesi",
      "type": "Devlet",
      "type-detail": "Ruh Sağlığı ve Hastalıkları Hast.",
      "address": "Belediye Evleri, Turgut Özal Blv. No:230, 01360 Çukurova/Adana",
      "location": {
        "lat": "37.0515626",
        "lon": "35.2525412"
      }
    },
    {
      "id": "31",
      "city": "Adıyaman",
      "district": "Sincik",
      "name": "Sincik İlçe Devlet Hastanesi",
      "type": "Devlet",
      "type-detail": "Entegre",
      "address": "Onur, 02900 Sincik/Adıyaman",
      "location": {
        "lat": "38.020547",
        "lon": "38.6050889"
      }
    },
    {
      "id": "32",
      "city": "Adıyaman",
      "district": "Kahta",
      "name": "Kahta Göçeri İlçe Devlet Hastanesi",
      "type": "Devlet",
      "type-detail": "Entegre",
      "address": "02450 Göçeri/Kâhta/Adıyaman",
      "location": {
        "lat": "37.7813594",
        "lon": "38.7360699"
      }
    },
    {
      "id": "33",
      "city": "Adıyaman",
      "district": "Gerger",
      "name": "Gerger İlçe Devlet Hastanesi",
      "type": "Devlet",
      "type-detail": "Entegre",
      "address": "Keleşan, 02700 Gerger/Adıyaman",
      "location": {
        "lat": "38.029111",
        "lon": "39.0170856"
      }
    },
    {
      "id": "34",
      "city": "Adıyaman",
      "district": "Tut",
      "name": "Tut İlçe Devlet Hastanesi",
      "type": "Devlet",
      "type-detail": "Entegre",
      "address": "Cumhuriyet, Tut Yolu, 02350 Tut/Adıyaman",
      "location": {
        "lat": "37.7953757",
        "lon": "37.8939617"
      }
    },
    {
      "id": "35",
      "city": "Adıyaman",
      "district": "Samsat",
      "name": "Samsat İlçe Devlet Hastanesi",
      "type": "Devlet",
      "type-detail": "Entegre",
      "address": "Yavuz Selim Mahallesi, Hemşire Yasemin AKIN Cad. Seyhan Sk. no:38 02800 Samsat/Adıyaman",
      "location": {
        "lat": "37.5823719",
        "lon": "38.4693678"
      }
    },
    {
      "id": "36",
      "city": "Adıyaman",
      "district": "Merkez",
      "name": "Adıyaman Eğitim Ve Araştırma Hastanesi",
      "type": "Devlet",
      "type-detail": "Genel Hastane",
      "address": "Yunus Emre, Adıyaman Alman Hst. No:2, 02200 Adıyaman Merkez/Adıyaman",
      "location": {
        "lat": "37.7842823",
        "lon": "38.2882468"
      }
    },
    {
      "id": "37",
      "city": "Adıyaman",
      "district": "Kahta",
      "name": "Kahta Devlet Hastanesi",
      "type": "Devlet",
      "type-detail": "Genel Hastane",
      "address": "Yavuz Selim, Hastane Cd No:39, 02400 Kâhta/Adıyaman",
      "location": {
        "lat": "37.7975096",
        "lon": "38.5963172"
      }
    },
    {
      "id": "38",
      "city": "Adıyaman",
      "district": "Besni",
      "name": "Besni Devlet Hastanesi",
      "type": "Devlet",
      "type-detail": "Genel Hastane",
      "address": "Çat, Ali Erdemoglu mah.Ali Erdemoglu Bulvarı No :6A, 02300 Besni/Adıyaman",
      "location": {
        "lat": "37.6787041",
        "lon": "37.8781511"
      }
    },
    {
      "id": "39",
      "city": "Adıyaman",
      "district": "Gölbaşı",
      "name": "Gölbaşı Devlet Hastanesi",
      "type": "Devlet",
      "type-detail": "Genel Hastane",
      "address": "Mimar Sinan, Hastane Cd. No:14, 02500 Gölbaşı/Adıyaman",
      "location": {
        "lat": "37.7903146",
        "lon": "37.650306"
      }
    },
    {
      "id": "40",
      "city": "Adıyaman",
      "district": "Çelikhan",
      "name": "Çelikhan Devlet Hastanesi",
      "type": "Devlet",
      "type-detail": "Genel Hastane",
      "address": "Başpınar, Baspinar Cad. No:102, 02600 Çelikhan/Adıyaman",
      "location": {
        "lat": "38.0340889",
        "lon": "38.24214"
      }
    },
    {
      "id": "41",
      "city": "Adıyaman",
      "district": "Merkez",
      "name": "Özel Adıyaman Park Hospital Hastanesi",
      "type": "Özel",
      "type-detail": "Özel Genel Hastane",
      "address": "Yeni Sanayi, 2819. Sk., 02040 Adıyaman Merkez/Adıyaman",
      "location": {
        "lat": "37.7518182",
        "lon": "38.2331764"
      }
    },
    {
      "id": "42",
      "city": "Adıyaman",
      "district": "Merkez",
      "name": "Özel Gözde Adıyaman Hastanesi",
      "type": "Özel",
      "type-detail": "Özel Genel Hastane",
      "address": "Eskisaray, Türk Telekom karşısı, 702. Sk. No:8, 02100 Adıyaman Merkez/Adıyaman",
      "location": {
        "lat": "37.7618892",
        "lon": "38.2607758"
      }
    },
    {
      "id": "43",
      "city": "Afyonkarahisar",
      "district": "Başmakçı",
      "name": "Başmakçı İlçe Devlet Hastanesi",
      "type": "Devlet",
      "type-detail": "Entegre",
      "address": "Yukarı Hilal, 03450 Başmakçı/Afyonkarahisar",
      "location": {
        "lat": "37.8877828",
        "lon": "29.9974096"
      }
    },
    {
      "id": "44",
      "city": "Afyonkarahisar",
      "district": "Bayat",
      "name": "Bayat Dr.mete Tan İlçe Devlet Hastanesi",
      "type": "Devlet",
      "type-detail": "Entegre",
      "address": "Cumhuriyet, Çiğdem Sk. No:3, 03780 Bayat/Afyonkarahisar",
      "location": {
        "lat": "40.0262667",
        "lon": "24.2822101"
      }
    },
    {
      "id": "45",
      "city": "Afyonkarahisar",
      "district": "Çobanlar",
      "name": "Çobanlar İlçe Devlet Hastanesi",
      "type": "Devlet",
      "type-detail": "Entegre",
      "address": "Yeni, Millik Cd., 03060 Çobanlar/Afyonkarahisar",
      "location": {
        "lat": "38.6983641",
        "lon": "30.7639113"
      }
    },
    {
      "id": "46",
      "city": "Afyonkarahisar",
      "district": "Dazkırı",
      "name": "Dazkırı İlçe Devlet Hastanesi",
      "type": "Devlet",
      "type-detail": "Entegre",
      "address": "Kurtuluş, Şht. Asb. Tuncay Doğan Cd. No:75, 03950 Dazkırı/Afyonkarahisar",
      "location": {
        "lat": "37.9228833",
        "lon": "29.8536885"
      }
    },
    {
      "id": "47",
      "city": "Afyonkarahisar",
      "district": "Dinar",
      "name": "Haydarlı İlçe Devlet Hastanesi",
      "type": "Devlet",
      "type-detail": "Entegre",
      "address": "İstiklal, Haydarlı Yolu Pk:03480, 03402 Haydarlı/Dinar/Afyonkarahisar",
      "location": {
        "lat": "38.261094",
        "lon": "30.3747253"
      }
    },
    {
      "id": "48",
      "city": "Afyonkarahisar",
      "district": "Evciler",
      "name": "Evciler İlçe Devlet Hastanesi",
      "type": "Devlet",
      "type-detail": "Entegre",
      "address": "Fatih, Akyarma Cd. No:39, 03960 Evciler/Afyonkarahisar",
      "location": {
        "lat": "38.0328673",
        "lon": "29.8827395"
      }
    },
    {
      "id": "49",
      "city": "Afyonkarahisar",
      "district": "Hocalar",
      "name": "Hocalar İlçe Devlet Hastanesi",
      "type": "Devlet",
      "type-detail": "Entegre",
      "address": "Yeni, Cumhuriyet Cd. No:51, 03530 Hocalar/Afyonkarahisar",
      "location": {
        "lat": "38.5789347",
        "lon": "29.9569101"
      }
    },
    {
      "id": "50",
      "city": "Afyonkarahisar",
      "district": "İhsaniye",
      "name": "İhsaniye İlçe Devlet Hastanesi",
      "type": "Devlet",
      "type-detail": "Entegre",
      "address": "Zafer, 03370 İhsaniye/Afyonkarahisar",
      "location": {
        "lat": "39.0234828",
        "lon": "30.4013128"
      }
    },
    {
      "id": "51",
      "city": "Afyonkarahisar",
      "district": "Sultandağı",
      "name": "Sultandağı İlçe Devlet Hastanesi",
      "type": "Devlet",
      "type-detail": "Entegre",
      "address": "Selçuk, Altıntaş Sk. No:1, 03900 Sultandağı/Afyonkarahisar",
      "location": {
        "lat": "38.5347405",
        "lon": "31.2289928"
      }
    },
    {
      "id": "52",
      "city": "Afyonkarahisar",
      "district": "Şuhut",
      "name": "Şuhut Devlet Hastanesi",
      "type": "Devlet",
      "type-detail": "Genel Hastane",
      "address": "Altıgöz, Oynağanlı Cd. No:90, 03800 Şuhut/Afyonkarahisar",
      "location": {
        "lat": "38.5319944",
        "lon": "30.5489303"
      }
    },
    {
      "id": "53",
      "city": "Afyonkarahisar",
      "district": "Sandıklı",
      "name": "Sandıklı Devlet Hastanesi",
      "type": "Devlet",
      "type-detail": "Genel Hastane",
      "address": "İstasyon, Ece Mah., İstasyon Cad. No:58, Sağlık Sk. No:9, 03500 Sandıklı/Afyonkarahisar",
      "location": {
        "lat": "38.4596569",
        "lon": "30.2551178"
      }
    },
    {
      "id": "54",
      "city": "Afyonkarahisar",
      "district": "Emirdağ",
      "name": "Emirdağ Devlet Hastanesi",
      "type": "Devlet",
      "type-detail": "Genel Hastane",
      "address": "Çilli mahallesi, Çilli mah. Konya Cad. No:165, 03600 Emirdağ/Afyon",
      "location": {
        "lat": "39.0058327",
        "lon": "31.1342534"
      }
    },
    {
      "id": "55",
      "city": "Afyonkarahisar",
      "district": "Dinar",
      "name": "Dinar Devlet Hastanesi",
      "type": "Devlet",
      "type-detail": "Genel Hastane",
      "address": "Otogar, Eski Denizli Cd., 03100 Dinar/Afyonkarahisar",
      "location": {
        "lat": "38.4062852",
        "lon": "29.6816912"
      }
    },
    {
      "id": "56",
      "city": "Afyonkarahisar",
      "district": "Bolvadin",
      "name": "Bolvadin Dr.halil İbrahim Özsoy Devlet Hastanesi",
      "type": "Devlet",
      "type-detail": "Genel Hastane",
      "address": "Bademli, Emirdağ Cd., 03300 Bolvadin/Afyonkarahisar",
      "location": {
        "lat": "38.7304664",
        "lon": "31.0370003"
      }
    },
    {
      "id": "57",
      "city": "Afyonkarahisar",
      "district": "Çay",
      "name": "Çay Devlet Hastanesi",
      "type": "Devlet",
      "type-detail": "Genel Hastane",
      "address": "Ali Kaleli, Ali Kaleli Mahallesi Cumhuriyet Caddesi No No:200, 03700 Çay/Afyonkarahisar",
      "location": {
        "lat": "38.5941329",
        "lon": "30.9924758"
      }
    },
    {
      "id": "58",
      "city": "Afyonkarahisar",
      "district": "Merkez",
      "name": "Afyonkarahisar Devlet Hastanesi",
      "type": "Devlet",
      "type-detail": "Genel Hastane",
      "address": "Derviş Paşa, Dr. Mahmut Hoca Cd. No:26, 03200 Afyonkarahisar Merkez/Afyonkarahisar",
      "location": {
        "lat": "38.7638309",
        "lon": "30.5339085"
      }
    },
    {
      "id": "59",
      "city": "Afyonkarahisar",
      "district": "İscehisar",
      "name": "İscehisar Karamehmet Devlet Hastanesi",
      "type": "Devlet",
      "type-detail": "Genel Hastane",
      "address": "Şirinevler, Afyon Ankara Yolu No:36, 03750 İscehisar/Afyonkarahisar",
      "location": {
        "lat": "38.855892",
        "lon": "30.7533039"
      }
    },
    {
      "id": "60",
      "city": "Afyonkarahisar",
      "district": "Sinanpaşa",
      "name": "Sinanpaşa Devlet Hastanesi",
      "type": "Devlet",
      "type-detail": "Genel Hastane",
      "address": "Öğretmenler, Cumhuriyet Meydanı No:48, 03850 Sinanpaşa/Afyonkarahisar",
      "location": {
        "lat": "38.7526141",
        "lon": "30.2374766"
      }
    },
    {
      "id": "61",
      "city": "Afyonkarahisar",
      "district": "Merkez",
      "name": "Özel Fuar Hastanesi",
      "type": "Özel",
      "type-detail": "Özel Genel Hastane",
      "address": "Yenice, Yenice Mahallesi Fuar Alanı, 03030 Afyonkarahisar Merkez/Afyon",
      "location": {
        "lat": "41.3124465",
        "lon": "27.9915148"
      }
    },
    {
      "id": "62",
      "city": "Afyonkarahisar",
      "district": "Merkez",
      "name": "Özel Parkhayat Hastanesi",
      "type": "Özel",
      "type-detail": "Özel Genel Hastane",
      "address": "Hasan Karaağaç Mah Turgut Özal Cad. No No:37, 03100 Merkez / Afyonkarahisar",
      "location": {
        "lat": "38.7735505",
        "lon": "30.4987982"
      }
    },
    {
      "id": "63",
      "city": "Afyonkarahisar",
      "district": "Merkez",
      "name": "Özel Dr Fatih Öğüç Fertillife Afyon Hastanesi",
      "type": "Özel",
      "type-detail": "Özel Kadın Hastalıkları ve Doğum Hastane",
      "address": "Derviş Paşa, Gobeloğlu Abdullah Cd. No:10, 03200 Afyonkarahisar Merkez/Afyonkarahisar",
      "location": {
        "lat": "38.7623669",
        "lon": "30.5359494"
      }
    },
    {
      "id": "64",
      "city": "Ağrı",
      "district": "Eleşkirt",
      "name": "Eleşkirt İlçe Devlet Hastanesi",
      "type": "Devlet",
      "type-detail": "Entegre",
      "address": "İstiklal, Hükümet Konağı Arkası, 04600 Eleşkirt/Ağrı",
      "location": {
        "lat": "39.7994229",
        "lon": "42.6692239"
      }
    },
    {
      "id": "65",
      "city": "Ağrı",
      "district": "Tutak",
      "name": "Tutak İlçe Devlet Hastanesi",
      "type": "Devlet",
      "type-detail": "Entegre",
      "address": "Karşıyaka Cumhuriyet Cad./çalışkan Sok No:18, 04700 Tutak",
      "location": {
        "lat": "39.5356492",
        "lon": "42.768246"
      }
    },
    {
      "id": "66",
      "city": "Ağrı",
      "district": "Taşlıçay",
      "name": "Taşlıçay İlçe Devlet Hastanesi",
      "type": "Devlet",
      "type-detail": "Entegre",
      "address": "Mustafa Yılmaz Mh., 3 Nolu Kümeevleri Sk., 04800 Taşlıçay/Ağrı",
      "location": {
        "lat": "39.6375367",
        "lon": "43.3668574"
      }
    },
    {
      "id": "67",
      "city": "Ağrı",
      "district": "Hamur",
      "name": "Hamur İlçe Devlet Hastanesi",
      "type": "Devlet",
      "type-detail": "Entegre",
      "address": "Yeni, Şht. Yusuf Cd., 04850 Hamur/Ağrı",
      "location": {
        "lat": "39.6076084",
        "lon": "42.9781143"
      }
    },
    {
      "id": "68",
      "city": "Ağrı",
      "district": "Merkez",
      "name": "Ağrı Eğitim Ve Araştırma Hastanesi",
      "type": "Devlet",
      "type-detail": "Genel Hastane",
      "address": "Çevre Yolu üzeri Suçatağı mevki, 04200 Ağrı Merkez/Ağrı",
      "location": {
        "lat": "39.71522",
        "lon": "42.9933115"
      }
    },
    {
      "id": "69",
      "city": "Ağrı",
      "district": "Diyadin",
      "name": "Diyadin Devlet Hastanesi",
      "type": "Devlet",
      "type-detail": "Genel Hastane",
      "address": "14 Nisan, D/9 Küme Evleri, 04900 Diyadin/Ağrı",
      "location": {
        "lat": "39.5539517",
        "lon": "43.6529079"
      }
    },
    {
      "id": "70",
      "city": "Ağrı",
      "district": "Doğubayazıt",
      "name": "Doğubayazıt Dr. Yaşar Eryılmaz Devlet Hastanesi",
      "type": "Devlet",
      "type-detail": "Genel Hastane",
      "address": "Küçük Yılanlı, Ağrı Doğubeyazıt Yolu, 04402 Yılanlı/Doğubayazıt/Ağrı",
      "location": {
        "lat": "39.5438425",
        "lon": "43.9678774"
      }
    },
    {
      "id": "71",
      "city": "Ağrı",
      "district": "Patnos",
      "name": "Patnos Devlet Hastanesi",
      "type": "Devlet",
      "type-detail": "Genel Hastane",
      "address": "Süphan Dağı, Bitlis Blv., 04500 Yalçınkaya/Patnos/Ağrı",
      "location": {
        "lat": "39.1896405",
        "lon": "42.8347645"
      }
    },
    {
      "id": "72",
      "city": "Ağrı",
      "district": "Merkez",
      "name": "Özel Ağrı Yaşam Hastanesi",
      "type": "Özel",
      "type-detail": "Özel Genel Hastane",
      "address": "Fırat Mah, Merkez, Erzurum Ağrı Yolu, 04100 Ağrı Merkez",
      "location": {
        "lat": "38.3674553",
        "lon": "14.0058207"
      }
    },
    {
      "id": "73",
      "city": "Ağrı",
      "district": "Doğubayazıt",
      "name": "Özel Mediza Hastanesi",
      "type": "Özel",
      "type-detail": "Özel Genel Hastane",
      "address": "Alpaslan, Ağrı Çevre Yolu Bulv. No:330, 04200 Ağrı Merkez/Ağrı",
      "location": {
        "lat": "39.7078615",
        "lon": "42.8873112"
      }
    },
    {
      "id": "74",
      "city": "Aksaray",
      "district": "Gülağaç",
      "name": "Gülağaç İlçe Devlet Hastanesi",
      "type": "Devlet",
      "type-detail": "Entegre",
      "address": "İstiklal, 68900 Gülağaç/Aksaray",
      "location": {
        "lat": "38.4037695",
        "lon": "34.3244122"
      }
    },
    {
      "id": "75",
      "city": "Aksaray",
      "district": "Sultanhanı",
      "name": "Sultanhanı Dr. Hüseyin Ağır İlçe Devlet Hastanesi",
      "type": "Devlet",
      "type-detail": "Entegre",
      "address": "İstikamet, 68000 Sultanhanı/Aksaray",
      "location": {
        "lat": "38.2455932",
        "lon": "33.5327033"
      }
    },
    {
      "id": "76",
      "city": "Aksaray",
      "district": "Güzelyurt",
      "name": "Güzelyurt İlçe Devlet Hastanesi",
      "type": "Devlet",
      "type-detail": "Entegre",
      "address": "Yukarı, 68500 Güzelyurt/Aksaray",
      "location": {
        "lat": "38.2714872",
        "lon": "34.3639944"
      }
    },
    {
      "id": "77",
      "city": "Aksaray",
      "district": "Ağaçören",
      "name": "Ağaçören İlçe Devlet Hastanesi",
      "type": "Devlet",
      "type-detail": "Entegre",
      "address": "Gümüştepe, Osmandurmuş Cad, 68600 Ağaçören/Aksaray",
      "location": {
        "lat": "38.8745838",
        "lon": "33.9039748"
      }
    },
    {
      "id": "78",
      "city": "Aksaray",
      "district": "Sarıyahşi",
      "name": "Sarıyahşi İlçe Devlet Hastanesi",
      "type": "Devlet",
      "type-detail": "Entegre",
      "address": "Özal, 68700 Sarıyahşi/Aksaray",
      "location": {
        "lat": "38.9727135",
        "lon": "33.8211426"
      }
    },
    {
      "id": "79",
      "city": "Aksaray",
      "district": "Merkez",
      "name": "Aksaray Eğitim Ve Araştırma Hastanesi",
      "type": "Devlet",
      "type-detail": "Genel Hastane",
      "address": "Aksaray, Dr. Adnan Adıvar Cd. No: 9, 34130 Fatih/İstanbul",
      "location": {
        "lat": "41.0089858",
        "lon": "28.935803"
      }
    },
    {
      "id": "80",
      "city": "Aksaray",
      "district": "Ortaköy",
      "name": "Aksaray Ortaköy Devlet Hastanesi",
      "type": "Devlet",
      "type-detail": "Genel Hastane",
      "address": "Zafer, Kırşehir Cd. 4. Km, 68400 Ortaköy/Aksaray",
      "location": {
        "lat": "38.7556975",
        "lon": "34.0600274"
      }
    },
    {
      "id": "81",
      "city": "Aksaray",
      "district": "Eskil",
      "name": "Eskil Devlet Hastanesi",
      "type": "Devlet",
      "type-detail": "Genel Hastane",
      "address": "Merkez, Mehmet Akif Cd. No:84, 68800 Böget Köyü/Eskil/Aksaray",
      "location": {
        "lat": "41.3124465",
        "lon": "27.9915148"
      }
    },
    {
      "id": "82",
      "city": "Aksaray",
      "district": "Merkez",
      "name": "Özel Aksaray Hastanesi",
      "type": "Özel",
      "type-detail": "Özel Genel Hastane",
      "address": "Hacılar Harmanı, Mahallesi, Özel Aksaray Hst. No:71, 68100 Aksaray Merkez/Aksaray",
      "location": {
        "lat": "41.3124465",
        "lon": "27.9915148"
      }
    },
    {
      "id": "83",
      "city": "Aksaray",
      "district": "Merkez",
      "name": "Özel İnova Hastanesi",
      "type": "Özel",
      "type-detail": "Özel Genel Hastane",
      "address": "Pınar Mahallesi Bediüzzaman Caddesi, 4005. Sk. No:1, 68100 Aksaray Merkez/Aksaray",
      "location": {
        "lat": "41.3124465",
        "lon": "27.9915148"
      }
    },
    {
      "id": "84",
      "city": "Aksaray",
      "district": "Merkez",
      "name": "Özel Maya Kadın Hastalıkları Ve Doğum Hastanesi",
      "type": "Özel",
      "type-detail": "Özel Kadın Hastalıkları ve Doğum Hastane",
      "address": "Coğlaki, 1202. Sk. No:3, 68100 Aksaray Merkez/Aksaray",
      "location": {
        "lat": "38.372549",
        "lon": "34.024555"
      }
    },
    {
      "id": "85",
      "city": "Amasya",
      "district": "Göynücek",
      "name": "Göynücek İlçe Devlet Hastanesi",
      "type": "Devlet",
      "type-detail": "Entegre",
      "address": "Cumhuriyet, Çağlar Sk. No:6, 05900 Göynücek/Amasya",
      "location": {
        "lat": "41.3124465",
        "lon": "27.9915148"
      }
    },
    {
      "id": "86",
      "city": "Amasya",
      "district": "Hamamözü",
      "name": "Hamamözü İlçe Devlet Hastanesi",
      "type": "Devlet",
      "type-detail": "Entegre",
      "address": "Arkutbey, Stadyum Cd. No:26, 05720 Hamamözü/Amasya",
      "location": {
        "lat": "40.7838046",
        "lon": "35.0077471"
      }
    },
    {
      "id": "87",
      "city": "Amasya",
      "district": "Merkez",
      "name": "Amasya Sabuncuoğlu Şerefeddin Eğitim Ve Araştırma Hastanesi",
      "type": "Devlet",
      "type-detail": "Genel Hastane",
      "address": "Kirazlıdere, 05200 Amasya Merkez/Amasya",
      "location": {
        "lat": "40.6612899",
        "lon": "35.8362668"
      }
    },
    {
      "id": "88",
      "city": "Amasya",
      "district": "Gümüşhacıköy",
      "name": "Gümüşhacıköy Devlet Hastanesi",
      "type": "Devlet",
      "type-detail": "Genel Hastane",
      "address": "Artıkabat, 05710 Gümüşhacıköy/Amasya",
      "location": {
        "lat": "41.3124465",
        "lon": "27.9915148"
      }
    },
    {
      "id": "89",
      "city": "Amasya",
      "district": "Merzifon",
      "name": "Merzifon Kara Mustafa Paşa Devlet Hastanesi",
      "type": "Devlet",
      "type-detail": "Genel Hastane",
      "address": "Bahçelievler, Ibni Sina Cd No:2, 05300 Merzifon/Amasya",
      "location": {
        "lat": "40.8674415",
        "lon": "35.4273412"
      }
    },
    {
      "id": "90",
      "city": "Amasya",
      "district": "Suluova",
      "name": "Suluova Devlet Hastanesi (yeni)",
      "type": "Devlet",
      "type-detail": "Genel Hastane",
      "address": "Maarif, Yunus Emre Sk. No:1, 05500 Suluova/Amasya",
      "location": {
        "lat": "40.8263343",
        "lon": "35.6480702"
      }
    },
    {
      "id": "91",
      "city": "Amasya",
      "district": "Taşova",
      "name": "Taşova Devlet Hastanesi",
      "type": "Devlet",
      "type-detail": "Genel Hastane",
      "address": "Sanayii, Sanayi Mahallesi No No:1, 05800 Taşova/Amasya",
      "location": {
        "lat": "40.7532245",
        "lon": "36.3303163"
      }
    },
    {
      "id": "92",
      "city": "Ankara",
      "district": "Altındağ",
      "name": "Ankara Dr. Sami Ulus Çocuk Sağlığı Ve Hastalıkları Eğitim Ve Araştırma Hastanesi",
      "type": "Devlet",
      "type-detail": "Çocuk Sağlığı ve Hastalıkları H.",
      "address": "Ziraat, Pamuk Sk. No:17, 06110 Altındağ/Ankara",
      "location": {
        "lat": "39.9408566",
        "lon": "32.7630393"
      }
    },
    {
      "id": "93",
      "city": "Ankara",
      "district": "Kalecik",
      "name": "Kalecik İlçe Devlet Hastanesi",
      "type": "Devlet",
      "type-detail": "Entegre",
      "address": "Halitcevriaslangil, 26. Sk. no.1, 06870 Kalecik/Ankara",
      "location": {
        "lat": "40.1113921",
        "lon": "33.39848"
      }
    },
    {
      "id": "94",
      "city": "Ankara",
      "district": "Güdül",
      "name": "Güdül İlçe Devlet Hastanesi",
      "type": "Devlet",
      "type-detail": "Entegre",
      "address": "Emirler, 06840 Güdül/Ankara",
      "location": {
        "lat": "40.2075124",
        "lon": "32.2360709"
      }
    },
    {
      "id": "95",
      "city": "Ankara",
      "district": "Bala",
      "name": "Bala İlçe Devlet Hastanesi",
      "type": "Devlet",
      "type-detail": "Entegre",
      "address": "Şentepe, Atatürk Blv., 06720 Balâ/Ankara",
      "location": {
        "lat": "39.557344",
        "lon": "33.1079209"
      }
    },
    {
      "id": "96",
      "city": "Ankara",
      "district": "Çankaya",
      "name": "Ankara Gaziler Fizik Tedavi Ve Rehabilitasyon Eğitim Ve Araştırma Hastanesi",
      "type": "Devlet",
      "type-detail": "Fizik Tedavi Hastanesi",
      "address": "Üniversiteler, Bilkent, 6002.Cadde No:3/1, 06800 Çankaya/Ankara",
      "location": {
        "lat": "39.8923347",
        "lon": "32.7443535"
      }
    },
    {
      "id": "97",
      "city": "Ankara",
      "district": "Yenimahalle",
      "name": "Ankara Yenimahalle Eğitim Ve Araştırma Hastanesi",
      "type": "Devlet",
      "type-detail": "Genel Hastane",
      "address": "Gayret, Gayret Mh., Aşıkçelebi Sok. no:7, Aşık Çelebi Sk., 06170 Yenimahalle/Ankara",
      "location": {
        "lat": "39.9658628",
        "lon": "32.5867343"
      }
    },
    {
      "id": "98",
      "city": "Ankara",
      "district": "Keçiören",
      "name": "Ankara Atatürk Sanatoryum Eğitim Ve Araştırma Hastanesi",
      "type": "Devlet",
      "type-detail": "Genel Hastane",
      "address": "Kuşcağız, Sanatoryum Cd. No:271, 06290 Keçiören/Ankara",
      "location": {
        "lat": "40.0016131",
        "lon": "32.8460655"
      }
    },
    {
      "id": "99",
      "city": "Ankara",
      "district": "Altındağ",
      "name": "Ankara Eğitim Ve Araştırma Hastanesi",
      "type": "Devlet",
      "type-detail": "Genel Hastane",
      "address": "Hacettepe, Ulucanlar Cd. No:89, 06230 Altındağ/Ankara",
      "location": {
        "lat": "39.9374783",
        "lon": "32.8661148"
      }
    },
    {
      "id": "100",
      "city": "Ankara",
      "district": "Altındağ",
      "name": "Ankara Dışkapı Yıldırım Beyazıt Eğitim Ve Araştırma Hastanesi",
      "type": "Devlet",
      "type-detail": "Genel Hastane",
      "address": "Avcılar, Karahöyük Cd. No:185, 06210 Şentepe Yenimahalle/Yenimahalle/Ankara",
      "location": {
        "lat": "39.9979327",
        "lon": "32.7852095"
      }
    },
    {
      "id": "101",
      "city": "Ankara",
      "district": "Çankaya",
      "name": "Ankara Bilkent Şehir Hastanesi",
      "type": "Devlet",
      "type-detail": "Genel Hastane",
      "address": "Üniversiteler, 1604. Cd. No:9, 06800 Çankaya/Ankara",
      "location": {
        "lat": "39.892542",
        "lon": "32.7380089"
      }
    },
    {
      "id": "102",
      "city": "Ankara",
      "district": "Keçiören",
      "name": "Ankara Gülhane Eğitim Ve Araştırma Hastanesi",
      "type": "Devlet",
      "type-detail": "Genel Hastane",
      "address": "Etlik, Gen. Dr. Tevfik Sağlam Cd No:1, 06010 Keçiören/Ankara",
      "location": {
        "lat": "39.965661",
        "lon": "32.8333186"
      }
    },
    {
      "id": "103",
      "city": "Ankara",
      "district": "Şereflikoçhisar",
      "name": "Şereflikoçhisar Devlet Hastanesi",
      "type": "Devlet",
      "type-detail": "Genel Hastane",
      "address": "Mehmet Akif Ersoy, E-90 Karayolu üzeri No:1, 06950 Şereflikoçhisar/Ankara",
      "location": {
        "lat": "38.9483808",
        "lon": "33.5153481"
      }
    },
    {
      "id": "104",
      "city": "Ankara",
      "district": "Kızılcahamam",
      "name": "Kızılcahamam Devlet Hastanesi",
      "type": "Devlet",
      "type-detail": "Genel Hastane",
      "address": "Akçay, Cengiz Topel Cd. No:63, 06890 Kızılcahamam/Ankara",
      "location": {
        "lat": "40.4754078",
        "lon": "32.642606"
      }
    },
    {
      "id": "105",
      "city": "Ankara",
      "district": "Nallıhan",
      "name": "Nallıhan Devlet Hastanesi",
      "type": "Devlet",
      "type-detail": "Genel Hastane",
      "address": "100.Yıl, Aydın Cd. No:1, 06920 Nallıhan/Ankara",
      "location": {
        "lat": "40.1939771",
        "lon": "31.3278576"
      }
    },
    {
      "id": "106",
      "city": "Ankara",
      "district": "Polatlı",
      "name": "Polatlı Duatepe Devlet Hastanesi",
      "type": "Devlet",
      "type-detail": "Genel Hastane",
      "address": "İstiklal, Eskişehir yolu üzeri Abdülaziz Cad. No:2, 06900 Polatlı/Ankara",
      "location": {
        "lat": "39.5885873",
        "lon": "32.1571417"
      }
    },
    {
      "id": "107",
      "city": "Ankara",
      "district": "Haymana",
      "name": "Haymana Devlet Hastanesi",
      "type": "Devlet",
      "type-detail": "Genel Hastane",
      "address": "Seyran, 06860 Haymana/Ankara",
      "location": {
        "lat": "39.4345931",
        "lon": "32.5013115"
      }
    },
    {
      "id": "108",
      "city": "Ankara",
      "district": "Kahramankazan",
      "name": "Kahramankazan Devlet Hastanesi",
      "type": "Devlet",
      "type-detail": "Genel Hastane",
      "address": "Atatürk, Osmanlı Cd. No:34, 06980 Kahramankazan/Ankara",
      "location": {
        "lat": "40.1961445",
        "lon": "32.6674202"
      }
    },
    {
      "id": "109",
      "city": "Ankara",
      "district": "Elmadağ",
      "name": "Elmadağ Dr. Hulusi Alataş Devlet Hastanesi",
      "type": "Devlet",
      "type-detail": "Genel Hastane",
      "address": "Yenice, Soğukpınar Sk. No:3, 06780 Elmadağ/Ankara",
      "location": {
        "lat": "39.9175592",
        "lon": "33.2217383"
      }
    },
    {
      "id": "110",
      "city": "Ankara",
      "district": "Beypazarı",
      "name": "Beypazarı Devlet Hastanesi",
      "type": "Devlet",
      "type-detail": "Genel Hastane",
      "address": "Ayvaşık, Beypazarı Devlet Hst. İç Yolu No:1, 06730 Beypazarı/Ankara",
      "location": {
        "lat": "40.1627694",
        "lon": "31.9200093"
      }
    },
    {
      "id": "111",
      "city": "Ankara",
      "district": "Çubuk",
      "name": "Çubuk Halil Şıvgın Devlet Hastanesi",
      "type": "Devlet",
      "type-detail": "Genel Hastane",
      "address": "Cumhuriyet Mh.,, Ankara Blv. No:54, 06760 Çubuk/Ankara",
      "location": {
        "lat": "40.2300624",
        "lon": "33.0229309"
      }
    },
    {
      "id": "112",
      "city": "Ankara",
      "district": "Etimesgut",
      "name": "Ankara Etimesgut Şehit Sait Ertürk Devlet Hastanesi",
      "type": "Devlet",
      "type-detail": "Genel Hastane",
      "address": "İstasyon Mah Leylak Cad, Ulubatlı Hasan Cd No : 5, 06790 Etimesgut",
      "location": {
        "lat": "39.9453873",
        "lon": "32.6581964"
      }
    },
    {
      "id": "113",
      "city": "Ankara",
      "district": "Sincan",
      "name": "Ankara Sincan Dr. Nafiz Körez Devlet Hastanesi",
      "type": "Devlet",
      "type-detail": "Genel Hastane",
      "address": "Gökçek, 250. Sk. 3/B, 06949 Sincan/Ankara ",
      "location": {
        "lat": "39.9841297",
        "lon": "32.5497707"
      }
    },
    {
      "id": "114",
      "city": "Ankara",
      "district": "Akyurt",
      "name": "Akyurt Devlet Hastanesi",
      "type": "Devlet",
      "type-detail": "Genel Hastane",
      "address": "Yeşiltepe, Mezbahane Cd. No:2, 06750 Akyurt/Ankara",
      "location": {
        "lat": "40.1353564",
        "lon": "33.0720531"
      }
    },
    {
      "id": "115",
      "city": "Ankara",
      "district": "Ayaş",
      "name": "Ayaş Şehit Mehmet Çifci Devlet Hastanesi",
      "type": "Devlet",
      "type-detail": "Genel Hastane",
      "address": "Hacırecep, 06710 Ayaş/Ankara",
      "location": {
        "lat": "40.0209227",
        "lon": "32.3080155"
      }
    },
    {
      "id": "116",
      "city": "Ankara",
      "district": "Gölbaşı",
      "name": "Gölbaşı Şehit Ahmet Özsoy Devlet Hastanesi",
      "type": "Devlet",
      "type-detail": "Genel Hastane",
      "address": "Seğmenler, Cumhuriyet Cd. no:134, 06830 Gölbaşı/Ankara",
      "location": {
        "lat": "39.7865796",
        "lon": "32.7758264"
      }
    },
    {
      "id": "117",
      "city": "Ankara",
      "district": "Pursaklar",
      "name": "Pursaklar Devlet Hastanesi",
      "type": "Devlet",
      "type-detail": "Genel Hastane",
      "address": "Mimar Sinan, Çağatay Cd No:39, 06145 Pursaklar/Ankara",
      "location": {
        "lat": "40.0489322",
        "lon": "32.8754441"
      }
    },
    {
      "id": "118",
      "city": "Ankara",
      "district": "Sincan",
      "name": "Ankara Ceza İnfaz Kurumları Kampüs Devlet Hastanesi",
      "type": "Devlet",
      "type-detail": "Genel Hastane",
      "address": "Adalet, Adalet Sk. No: 88, 06300 Sincan/Ankara",
      "location": {
        "lat": "40.0189299",
        "lon": "32.5477916"
      }
    },
    {
      "id": "119",
      "city": "Ankara",
      "district": "Çankaya",
      "name": "Ankara Meclis Devlet Hastanesi",
      "type": "Devlet",
      "type-detail": "Genel Hastane",
      "address": "Devlet, Dikmen Cd No:14, 06420 Çankaya/Ankara",
      "location": {
        "lat": "39.9092695",
        "lon": "32.8365942"
      }
    },
    {
      "id": "120",
      "city": "Ankara",
      "district": "Çankaya",
      "name": "Ankara 29 Mayıs Devlet Hastanesi",
      "type": "Devlet",
      "type-detail": "Genel Hastane",
      "address": "Aydınlar, Dikmen Cd No:312, 06105 Çankaya/Ankara",
      "location": {
        "lat": "39.8757254",
        "lon": "32.8243824"
      }
    },
    {
      "id": "121",
      "city": "Ankara",
      "district": "Çankaya",
      "name": "Ankara Beytepe Şehit Murat Erdi Eker Devlet Hastanesi",
      "type": "Devlet",
      "type-detail": "Genel Hastane",
      "address": "Ahlatlıbel, 1746. Sk. No:1, 06800 Çankaya/Ankara",
      "location": {
        "lat": "39.8422466",
        "lon": "32.7185347"
      }
    },
    {
      "id": "122",
      "city": "Ankara",
      "district": "Mamak",
      "name": "Mamak Devlet Hastanesi",
      "type": "Devlet",
      "type-detail": "Genel Hastane",
      "address": "Üreğil, 1166. Cad. No:13, 06270 Mamak/Ankara",
      "location": {
        "lat": "39.9139906",
        "lon": "32.944518"
      }
    },
    {
      "id": "123",
      "city": "Ankara",
      "district": "Yenimahalle",
      "name": "Ankara Etlik Şehir Hastanesi",
      "type": "Devlet",
      "type-detail": "Genel Hastane",
      "address": "Varlık, Halil Sezai Erkut Cd. No:5, 06170 Yenimahalle/Ankara",
      "location": {
        "lat": "39.9640687",
        "lon": "32.8210807"
      }
    },
    {
      "id": "124",
      "city": "Ankara",
      "district": "Yenimahalle",
      "name": "T..c. Sağlık Bakanlığı Ankara Beştepe Devlet Hastanesi",
      "type": "Devlet",
      "type-detail": "Genel Hastane",
      "address": "Beştepe, Beştepeler Mh, Alparslan Türkeş Cd. No:57, 06560 Çankaya/Ankara",
      "location": {
        "lat": "39.9299271",
        "lon": "32.804848"
      }
    },
    {
      "id": "125",
      "city": "Ankara",
      "district": "Altındağ",
      "name": "Ankara Ulucanlar Göz Eğitim Ve Araştırma Hastanesi",
      "type": "Devlet",
      "type-detail": "Göz",
      "address": "Kale, Ulucanlar Cd. No:59, 06250 Altındağ/Ankara",
      "location": {
        "lat": "39.9374446",
        "lon": "32.8599893"
      }
    },
    {
      "id": "126",
      "city": "Ankara",
      "district": "Yenimahalle",
      "name": "Ankara Etlik Zübeyde Hanım Kadın Hastalıkları Eğitim Ve Araştırma Hastanesi",
      "type": "Devlet",
      "type-detail": "Kadın Doğum ve Çocuk H.",
      "address": "Aşağı Eğlence, Emrah, Etlik Cd No:55, 06010 Keçiören/Ankara",
      "location": {
        "lat": "39.9638453",
        "lon": "32.8295953"
      }
    },
    {
      "id": "127",
      "city": "Ankara",
      "district": "Gölbaşı",
      "name": "Özel Lösante Çocuk Ve Yetişkin Hastanesi",
      "type": "Özel",
      "type-detail": "Lösemili Çocuklar Hastanesi",
      "address": "Kızılcaşar, 23 Nisan Cd. No:20, 06830 Gölbaşı/Ankara",
      "location": {
        "lat": "39.8331147",
        "lon": "32.7090615"
      }
    },
    {
      "id": "128",
      "city": "Ankara",
      "district": "Yenimahalle",
      "name": "Ankara Gazi Mustafa Kemal Mesleki Ve Çevresel Hastalıklar Hastanesi",
      "type": "Devlet",
      "type-detail": "Meslek Hastalıkları Hastanesi",
      "address": "Emniyet, Silahtar Cd. No:6, 06560 Yenimahalle/Ankara",
      "location": {
        "lat": "39.9449199",
        "lon": "32.8136213"
      }
    },
    {
      "id": "129",
      "city": "Ankara",
      "district": "Yenimahalle",
      "name": "Ankara Dr. Abdurrahman Yurtaslan Onkoloji Eğitim Ve Araştırma Hastanesi",
      "type": "Devlet",
      "type-detail": "ONKOLOJİ",
      "address": "Mehmet Akif Ersoy, 354/1. Sk., 06200 Yenimahalle/Ankara",
      "location": {
        "lat": "39.9702001",
        "lon": "32.7690527"
      }
    },
    {
      "id": "130",
      "city": "Ankara",
      "district": "Gölbaşı",
      "name": "Özel İncek Fizik Tedavi Ve Rehabilitasyon Hastanesi",
      "type": "Özel",
      "type-detail": "Özel Fizik Tedavi ve Rehabilitasyon Hst.",
      "address": "Kızılcaşar Mahallesi 2744 Sokak 1 2744 Sokak, Incek Şht. Savcı Mehmet Selim Kiraz Blv No:1, 06830 Gölbaşı/Ankara",
      "location": {
        "lat": "39.8288631",
        "lon": "32.7186281"
      }
    },
    {
      "id": "131",
      "city": "Ankara",
      "district": "Çankaya",
      "name": "Acıbadem Ankara Hastanesi",
      "type": "Özel",
      "type-detail": "Özel Genel Hastane",
      "address": "Yukarı Dikmen, Tevfik Kış Cd No:6, 06450 Çankaya/Ankara",
      "location": {
        "lat": "39.8476191",
        "lon": "32.8281977"
      }
    },
    {
      "id": "132",
      "city": "Ankara",
      "district": "Etimesgut",
      "name": "Özel A Life Park Hospital Ankara Hastanesi",
      "type": "Özel",
      "type-detail": "Özel Genel Hastane",
      "address": "Elvan, 1935. Sk. No:5, 06794 Etimesgut/Ankara",
      "location": {
        "lat": "39.9979287",
        "lon": "32.4375938"
      }
    },
    {
      "id": "133",
      "city": "Ankara",
      "district": "Çankaya",
      "name": "Özel Akropol Hastanesi",
      "type": "Özel",
      "type-detail": "Özel Genel Hastane",
      "address": "Aydınlıkevler, Uzayan Sk. No:99, 06130 Altındağ/Ankara",
      "location": {
        "lat": "39.9616949",
        "lon": "32.8714018"
      }
    },
    {
      "id": "134",
      "city": "Ankara",
      "district": "Çankaya",
      "name": "Özel Ankara Güven Hastanesi",
      "type": "Özel",
      "type-detail": "Özel Genel Hastane",
      "address": "Kavaklıdere, Şimşek Sk. No:29, 06540 Çankaya/Ankara",
      "location": {
        "lat": "39.9044312",
        "lon": "32.8441104"
      }
    },
    {
      "id": "135",
      "city": "Ankara",
      "district": "Yenimahalle",
      "name": "Özel Ankara Medicalpark Hastanesi",
      "type": "Özel",
      "type-detail": "Özel Genel Hastane",
      "address": "Kent Koop Mah 1868. Sok, Batıkent Blv. No:15, 06680 Yenimahalle/Ankara",
      "location": {
        "lat": "39.9664469",
        "lon": "32.6992558"
      }
    },
    {
      "id": "136",
      "city": "Ankara",
      "district": "Çankaya",
      "name": "Özel Ankara Umut Hastanesi",
      "type": "Özel",
      "type-detail": "Özel Genel Hastane",
      "address": "Barbaros, Büklüm Cd No:72, 06680 Çankaya/Ankara",
      "location": {
        "lat": "41.3124465",
        "lon": "27.9915148"
      }
    },
    {
      "id": "137",
      "city": "Ankara",
      "district": "Çankaya",
      "name": "Özel Bayındır Söğütözü Hastanesi",
      "type": "Özel",
      "type-detail": "Özel Genel Hastane",
      "address": "Söğütözü, Kızılırmak Mahallesi, 1443. Cd. No:17, 06250",
      "location": {
        "lat": "39.9106791",
        "lon": "32.7731065"
      }
    },
    {
      "id": "138",
      "city": "Ankara",
      "district": "Çankaya",
      "name": "Özel Bayındır Kavaklıdere Hastanesi",
      "type": "Özel",
      "type-detail": "Özel Genel Hastane",
      "address": "Kavaklıdere, Atatürk Blv No:201, 06680 Çankaya/Ankara",
      "location": {
        "lat": "39.9072925",
        "lon": "32.847295"
      }
    },
    {
      "id": "139",
      "city": "Ankara",
      "district": "Yenimahalle",
      "name": "Özel Bilgi Hastanesi",
      "type": "Özel",
      "type-detail": "Özel Genel Hastane",
      "address": "İnönü, Batı Blv No:99, 06370 Batıkent Yenimahalle/Ankara",
      "location": {
        "lat": "40.3892272",
        "lon": "25.5220564"
      }
    },
    {
      "id": "140",
      "city": "Ankara",
      "district": "Çankaya",
      "name": "Özel Çankaya Hastanesi",
      "type": "Özel",
      "type-detail": "Özel Genel Hastane",
      "address": "Barbaros, Bülten Sk. No:44, 06700 Çankaya/Ankara",
      "location": {
        "lat": "41.3124465",
        "lon": "27.9915148"
      }
    },
    {
      "id": "141",
      "city": "Ankara",
      "district": "Çankaya",
      "name": "Özel Çankaya Yaşam Hastanesi",
      "type": "Özel",
      "type-detail": "Özel Genel Hastane",
      "address": "Birlik, Birlik Mahallesi Şehit Kurbani Akboğa Sokak, Eski 391. Caddesi No:26, 06610 Çankaya/Ankara",
      "location": {
        "lat": "41.3124465",
        "lon": "27.9915148"
      }
    },
    {
      "id": "142",
      "city": "Ankara",
      "district": "Etimesgut",
      "name": "Özel Eryaman Hastanesi",
      "type": "Özel",
      "type-detail": "Özel Genel Hastane",
      "address": "Eryaman, Şehit Osmanavcı Mahallesi, 2649. Sk. No: 2, 06820",
      "location": {
        "lat": "41.3124465",
        "lon": "27.9915148"
      }
    },
    {
      "id": "143",
      "city": "Ankara",
      "district": "Keçiören",
      "name": "Özel Keçiören Hastanesi",
      "type": "Özel",
      "type-detail": "Özel Genel Hastane",
      "address": "Köşk, Anavatan Cd. No:20, 06300 Keçiören/Ankara",
      "location": {
        "lat": "41.3124465",
        "lon": "27.9915148"
      }
    },
    {
      "id": "144",
      "city": "Ankara",
      "district": "Çankaya",
      "name": "Özel Koru Ankara Hastanesi",
      "type": "Özel",
      "type-detail": "Özel Genel Hastane",
      "address": "Kızılırmak, 1450. Sk. No:13, 06510 Çankaya/Ankara",
      "location": {
        "lat": "41.3124465",
        "lon": "27.9915148"
      }
    },
    {
      "id": "145",
      "city": "Ankara",
      "district": "Sincan",
      "name": "Özel Koru Sincan Hastanesi",
      "type": "Özel",
      "type-detail": "Özel Genel Hastane",
      "address": "Akşemsettin, Huzur Sk. No:1, 06934 Sincan/Ankara",
      "location": {
        "lat": "41.3124465",
        "lon": "27.9915148"
      }
    },
    {
      "id": "146",
      "city": "Ankara",
      "district": "Çankaya",
      "name": "Özel Kudret International Hospital",
      "type": "Özel",
      "type-detail": "Özel Genel Hastane",
      "address": "Maltepe, Gazi Mustafa Kemal Blv. No:81, 06900 Çankaya/Ankara",
      "location": {
        "lat": "39.9297242",
        "lon": "32.8348992"
      }
    },
    {
      "id": "147",
      "city": "Ankara",
      "district": "Çankaya",
      "name": "Özel Liv Hospital Ankara",
      "type": "Özel",
      "type-detail": "Özel Genel Hastane",
      "address": "Kavaklıdere, Bestekar Cd No:8, 06680 Çankaya/Ankara",
      "location": {
        "lat": "39.9119113",
        "lon": "32.8463475"
      }
    },
    {
      "id": "148",
      "city": "Ankara",
      "district": "Çankaya",
      "name": "Özel Lokman Hekim Akay Hastanesi",
      "type": "Özel",
      "type-detail": "Özel Genel Hastane",
      "address": "Kavaklıdere, Büklüm Cd No:4, 06700 Kavaklıdere / Çankaya/Çankaya/Ankara",
      "location": {
        "lat": "39.9125951",
        "lon": "32.8474146"
      }
    },
    {
      "id": "149",
      "city": "Ankara",
      "district": "Sincan",
      "name": "Özel Lokman Hekim Ankara Hastanesi",
      "type": "Özel",
      "type-detail": "Özel Genel Hastane",
      "address": "Andiçen Mh, Polatlı 2 Caddesi, İdil Sk. No:44, 06930 Sincan",
      "location": {
        "lat": "39.9563645",
        "lon": "32.5732602"
      }
    },
    {
      "id": "150",
      "city": "Ankara",
      "district": "Keçiören",
      "name": "Özel Lokman Hekim Etlik Hastanesi",
      "type": "Özel",
      "type-detail": "Özel Genel Hastane",
      "address": "Etlik, Gn, Gen. Dr. Tevfik Sağlam Cd No:119, 06010 Keçiören/Ankara",
      "location": {
        "lat": "39.9789403",
        "lon": "32.7607006"
      }
    },
    {
      "id": "151",
      "city": "Ankara",
      "district": "Çankaya",
      "name": "Özel Medicana International Ankara Hastanesi",
      "type": "Özel",
      "type-detail": "Özel Genel Hastane",
      "address": "Söğütözü, 2176. Sk. No: 3, 06510 Çankaya/Ankara",
      "location": {
        "lat": "39.9101544",
        "lon": "32.7893791"
      }
    },
    {
      "id": "152",
      "city": "Ankara",
      "district": "Keçiören",
      "name": "Özel Vm Medical Park Ankara Hastanesi",
      "type": "Özel",
      "type-detail": "Özel Genel Hastane",
      "address": "Kavacık Subayevleri, 06120 Keçiören/Ankara",
      "location": {
        "lat": "39.9789257",
        "lon": "32.7607006"
      }
    },
    {
      "id": "153",
      "city": "Ankara",
      "district": "Çankaya",
      "name": "Özel Medisun Çayyolu Hastanesi",
      "type": "Özel",
      "type-detail": "Özel Genel Hastane",
      "address": "Çayyolu, 1920. Cadde No:61, 06800 Çankaya/Ankara",
      "location": {
        "lat": "39.8906565",
        "lon": "32.6999521"
      }
    },
    {
      "id": "154",
      "city": "Ankara",
      "district": "Çankaya",
      "name": "Özel Memorial Ankara Hastanesi",
      "type": "Özel",
      "type-detail": "Özel Genel Hastane",
      "address": "Balgat, Balgat Mah. Mevlana Bulv, 1422. Sk. No: 4, 06520 Çankaya/Ankara",
      "location": {
        "lat": "39.9035823",
        "lon": "32.8051965"
      }
    },
    {
      "id": "155",
      "city": "Ankara",
      "district": "Mamak",
      "name": "Özel Natomed Hastanesi",
      "type": "Özel",
      "type-detail": "Özel Genel Hastane",
      "address": "Tuzluçayır, Natoyolu Caddesı No:49, 06620 Mamak/Ankara",
      "location": {
        "lat": "39.9199109",
        "lon": "32.8977101"
      }
    },
    {
      "id": "156",
      "city": "Ankara",
      "district": "Yenimahalle",
      "name": "Özel Ortadoğu Hastanesi",
      "type": "Özel",
      "type-detail": "Özel Genel Hastane",
      "address": "Gayret, İvedik Cd. No:41, 06170 Yenimahalle/Ankara",
      "location": {
        "lat": "39.9638185",
        "lon": "32.7903005"
      }
    },
    {
      "id": "157",
      "city": "Ankara",
      "district": "Çankaya",
      "name": "Özel Ortadoğu 19 Mayıs Hastanesi",
      "type": "Özel",
      "type-detail": "Özel Genel Hastane",
      "address": "Naci Çakır, Mah 761. Sok No:2, 06450 Çankaya/Ankara",
      "location": {
        "lat": "39.8751905",
        "lon": "32.8300011"
      }
    },
    {
      "id": "158",
      "city": "Ankara",
      "district": "Polatlı",
      "name": "Özel Polatlı Can Hastanesi",
      "type": "Özel",
      "type-detail": "Özel Genel Hastane",
      "address": "Yeni, Gordion Cd. No:1, 06900 Polatlı/Ankara",
      "location": {
        "lat": "41.3124465",
        "lon": "27.9915148"
      }
    },
    {
      "id": "159",
      "city": "Ankara",
      "district": "Çankaya",
      "name": "Özel 100.yıl Hastanesi",
      "type": "Özel",
      "type-detail": "Özel Genel Hastane",
      "address": "Balgat, Muhsin Yazıcıoğlu Cd. No:54, 06530 Çankaya/Ankara",
      "location": {
        "lat": "39.8919883",
        "lon": "32.8000629"
      }
    },
    {
      "id": "160",
      "city": "Ankara",
      "district": "Altındağ",
      "name": "Vsd Nusret Karasu Göğüs Hastalıkları Hastanesi",
      "type": "Özel",
      "type-detail": "Özel Göğüs Hastalıkları Hastanesi",
      "address": "Sakarya, Hisar Parkı Cd. No:18, 06250 Altındağ/Ankara",
      "location": {
        "lat": "39.9413612",
        "lon": "32.8503182"
      }
    },
    {
      "id": "161",
      "city": "Ankara",
      "district": "Çankaya",
      "name": "Özel Dünya Göz Dal Hastanesi Ankara",
      "type": "Özel",
      "type-detail": "Özel Göz Hastanesi",
      "address": "Kavaklıdere, Tunus Cd No: 28, 06700 Çankaya/Ankara",
      "location": {
        "lat": "39.9104046",
        "lon": "32.8466803"
      }
    },
    {
      "id": "162",
      "city": "Ankara",
      "district": "Çankaya",
      "name": "Özel Kudret Göz Hastanesi",
      "type": "Özel",
      "type-detail": "Özel Göz Hastanesi",
      "address": "Barbaros, John F. Kennedy Cd. No:71, 06660 Çankaya/Ankara",
      "location": {
        "lat": "41.3124465",
        "lon": "27.9915148"
      }
    },
    {
      "id": "163",
      "city": "Ankara",
      "district": "Çankaya",
      "name": "Özel Hrs Ankara Kadın Hastanesi",
      "type": "Özel",
      "type-detail": "Özel Kadın Hastalıkları ve Doğum Hastane",
      "address": "Güvenevler, Güneş Sk. No:14, 06690 Çankaya/Ankara",
      "location": {
        "lat": "39.8991435",
        "lon": "32.8469601"
      }
    },
    {
      "id": "164",
      "city": "Ankara",
      "district": "Kahramankazan",
      "name": "Özel Boylam Psikiyatri Hastanesi",
      "type": "Özel",
      "type-detail": "Özel Ruh Sağlığı ve Hastalıkları Hastane",
      "address": "Highway (TEM) Kavşağı, Kahramankazan Ankara, 06980 Kahramankazan",
      "location": {
        "lat": "40.1204255",
        "lon": "32.5919182"
      }
    },
    {
      "id": "165",
      "city": "Antalya",
      "district": "Akseki",
      "name": "Akseki İlçe Devlet Hastanesi",
      "type": "Devlet",
      "type-detail": "Entegre",
      "address": "Demirciler, Akseki Devlet Hst., 07630 Akseki/Antalya",
      "location": {
        "lat": "37.041856",
        "lon": "31.7753613"
      }
    },
    {
      "id": "166",
      "city": "Antalya",
      "district": "Gündoğmuş",
      "name": "Gündoğmuş İlçe Devlet Hastanesi",
      "type": "Devlet",
      "type-detail": "Entegre",
      "address": "Fatih, Alparslan Türkeş Cd., 07860 Gündoğmuş/Antalya",
      "location": {
        "lat": "36.806169",
        "lon": "31.9892466"
      }
    },
    {
      "id": "167",
      "city": "Antalya",
      "district": "Alanya",
      "name": "Alanya Eğitim Ve Araştırma Hastanesi",
      "type": "Devlet",
      "type-detail": "Genel Hastane",
      "address": "Oba, Fidanlık Cd., 07400 Alanya/Antalya",
      "location": {
        "lat": "36.5407346",
        "lon": "32.0339092"
      }
    },
    {
      "id": "168",
      "city": "Antalya",
      "district": "Muratpaşa",
      "name": "Antalya Eğitim Ve Araştırma Hastanesi",
      "type": "Devlet",
      "type-detail": "Genel Hastane",
      "address": "Varlık, Kazım Karabekir Cd., 07100 Muratpaşa/Antalya",
      "location": {
        "lat": "36.8906725",
        "lon": "30.667727"
      }
    },
    {
      "id": "169",
      "city": "Antalya",
      "district": "Serik",
      "name": "Serik Devlet Hastanesi",
      "type": "Devlet",
      "type-detail": "Genel Hastane",
      "address": "Yeni, 4079. Sk., 07500 Serik/Antalya",
      "location": {
        "lat": "36.9195326",
        "lon": "31.1068142"
      }
    },
    {
      "id": "170",
      "city": "Antalya",
      "district": "Kumluca",
      "name": "Kumluca Devlet Hastanesi",
      "type": "Devlet",
      "type-detail": "Genel Hastane",
      "address": "Sarıkavak, Antalya Yolu Üzeri, 07350 Kumluca/Antalya",
      "location": {
        "lat": "36.3652646",
        "lon": "30.2962603"
      }
    },
    {
      "id": "171",
      "city": "Antalya",
      "district": "Manavgat",
      "name": "Manavgat Devlet Hastanesi",
      "type": "Devlet",
      "type-detail": "Genel Hastane",
      "address": "Çağlayan, Şelale Cd. Üzeri, 07600 Manavgat/Antalya",
      "location": {
        "lat": "36.79599",
        "lon": "31.4380228"
      }
    },
    {
      "id": "172",
      "city": "Antalya",
      "district": "Kaş",
      "name": "Kaş Devlet Hastanesi",
      "type": "Devlet",
      "type-detail": "Genel Hastane",
      "address": "Gökçeören, Antalya Fethiye Yolu, 07580 Kaş/Antalya",
      "location": {
        "lat": "36.2033329",
        "lon": "29.5761884"
      }
    },
    {
      "id": "173",
      "city": "Antalya",
      "district": "Kemer",
      "name": "Kemer Devlet Hastanesi",
      "type": "Devlet",
      "type-detail": "Genel Hastane",
      "address": "Yeni, Dedeler Mevkii, 07980 Kemer/Antalya",
      "location": {
        "lat": "36.6153315",
        "lon": "30.5400589"
      }
    },
    {
      "id": "174",
      "city": "Antalya",
      "district": "Korkuteli",
      "name": "Korkuteli Devlet Hastanesi",
      "type": "Devlet",
      "type-detail": "Genel Hastane",
      "address": "UZUNOLUK MA, MEHMET AKİF ERSOY BULVARI :125/1, 07800 Korkuteli/Antalya",
      "location": {
        "lat": "37.081767",
        "lon": "30.191749"
      }
    },
    {
      "id": "175",
      "city": "Antalya",
      "district": "Elmalı",
      "name": "Elmalı Devlet Hastanesi",
      "type": "Devlet",
      "type-detail": "Genel Hastane",
      "address": "4 9280 Sokak, Yeni Mahalle Sk., 07716 Elmalı/Antalya",
      "location": {
        "lat": "36.7306015",
        "lon": "29.9290162"
      }
    },
    {
      "id": "176",
      "city": "Antalya",
      "district": "Finike",
      "name": "Finike Devlet Hastanesi",
      "type": "Devlet",
      "type-detail": "Genel Hastane",
      "address": "Sahilkent, Akdeniz Blv. NO:302, 07740 Finike/Antalya",
      "location": {
        "lat": "36.3031395",
        "lon": "30.1396854"
      }
    },
    {
      "id": "177",
      "city": "Antalya",
      "district": "Gazipaşa",
      "name": "Gazipaşa Devlet Hastanesi",
      "type": "Devlet",
      "type-detail": "Genel Hastane",
      "address": "Cumhuriyet, Hastane Cd., 07900 Gazipaşa/Antalya",
      "location": {
        "lat": "36.2740696",
        "lon": "32.2936222"
      }
    },
    {
      "id": "178",
      "city": "Antalya",
      "district": "Demre",
      "name": "Demre Devlet Hastanesi",
      "type": "Devlet",
      "type-detail": "Genel Hastane",
      "address": "Demre Devlet Hastanesi Beymelek Mahallesi Saz Caddesi, Hastane Sk., 07570 Demre/Antalya",
      "location": {
        "lat": "36.2420248",
        "lon": "30.0062354"
      }
    },
    {
      "id": "179",
      "city": "Antalya",
      "district": "Muratpaşa",
      "name": "Antalya Atatürk Devlet Hastanesi",
      "type": "Devlet",
      "type-detail": "Genel Hastane",
      "address": "Üçgen, Anafartalar Cd. No:100, 07040 Muratpaşa/Antalya",
      "location": {
        "lat": "36.8987059",
        "lon": "30.6813646"
      }
    },
    {
      "id": "180",
      "city": "Antalya",
      "district": "Kepez",
      "name": "Kepez Devlet Hastanesi",
      "type": "Devlet",
      "type-detail": "Genel Hastane",
      "address": "Hüsnü Karakaş, No:124, 15. Temmuz Şehitler Cd, 07320 Kepez",
      "location": {
        "lat": "36.9326435",
        "lon": "30.7156246"
      }
    },
    {
      "id": "181",
      "city": "Antalya",
      "district": "Muratpaşa",
      "name": "Antalya Özel Anadolu Hastanesi",
      "type": "Özel",
      "type-detail": "Özel Genel Hastane",
      "address": "Çaybaşı, 1352. Sk. No: 8, 07100 Muratpaşa/Antalya",
      "location": {
        "lat": "36.8870558",
        "lon": "30.7087477"
      }
    },
    {
      "id": "182",
      "city": "Antalya",
      "district": "Manavgat",
      "name": "Özel Akdeniz Hastanesi",
      "type": "Özel",
      "type-detail": "Özel Genel Hastane",
      "address": "Sorgun, 8151 Sok No:10, 07600 Manavgat/Antalya",
      "location": {
        "lat": "36.7699571",
        "lon": "31.4295814"
      }
    },
    {
      "id": "183",
      "city": "Antalya",
      "district": "Muratpaşa",
      "name": "Özel Akdeniz Sağlık Vakfı Yaşam Hastanesi",
      "type": "Özel",
      "type-detail": "Özel Genel Hastane",
      "address": "Gebizli, 1116. Sk. No:4, 07300 Muratpaşa/Antalya",
      "location": {
        "lat": "36.8991671",
        "lon": "30.7138554"
      }
    },
    {
      "id": "184",
      "city": "Antalya",
      "district": "Kepez",
      "name": "Özel Akdeniz Şifa Hastanesi",
      "type": "Özel",
      "type-detail": "Özel Genel Hastane",
      "address": "Kuzeyyaka, Varsak Köprüsü, Yeşilırmak Cd. No: 367, 07090 Kepez/Antalya",
      "location": {
        "lat": "36.9442857",
        "lon": "30.0990197"
      }
    },
    {
      "id": "185",
      "city": "Antalya",
      "district": "Alanya",
      "name": "Özel Alanya Anadolu Hastanesi",
      "type": "Özel",
      "type-detail": "Özel Genel Hastane",
      "address": "Kadıpaşa, Stad Cd. 28/A, 07400 Alanya/Antalya",
      "location": {
        "lat": "41.3124465",
        "lon": "27.9915148"
      }
    },
    {
      "id": "186",
      "city": "Antalya",
      "district": "Kemer",
      "name": "Özel Anadolu Hastanesi",
      "type": "Özel",
      "type-detail": "Özel Genel Hastane",
      "address": "Çaybaşı, 1352. Sk. No: 8, 07100 Muratpaşa/Antalya",
      "location": {
        "lat": "36.8729026",
        "lon": "30.6739768"
      }
    },
    {
      "id": "187",
      "city": "Antalya",
      "district": "Muratpaşa",
      "name": "Özel Antalya Likya Hastanesi",
      "type": "Özel",
      "type-detail": "Özel Genel Hastane",
      "address": "Kızıltoprak, Aspendos Blv. No:14, 07200 Muratpaşa/Antalya",
      "location": {
        "lat": "36.8863732",
        "lon": "30.7187994"
      }
    },
    {
      "id": "188",
      "city": "Antalya",
      "district": "Muratpaşa",
      "name": "Özel Antalya Yaşam Hastanesi",
      "type": "Özel",
      "type-detail": "Özel Genel Hastane",
      "address": "Şirinyalı, 1487. Sk. No:4, 07160 Muratpaşa/Antalya",
      "location": {
        "lat": "36.8629246",
        "lon": "30.7204252"
      }
    },
    {
      "id": "189",
      "city": "Antalya",
      "district": "Serik",
      "name": "Özel Aspendos Anadolu Hastanesi",
      "type": "Özel",
      "type-detail": "Özel Genel Hastane",
      "address": "Eminceler, Mahalle, Orta, 14 Sokak No:6, 07500 Serik/Antalya",
      "location": {
        "lat": "36.903619",
        "lon": "31.0627262"
      }
    },
    {
      "id": "191",
      "city": "Antalya",
      "district": "Kemer",
      "name": "Özel Kemer Yaşam Hastanesi",
      "type": "Özel",
      "type-detail": "Özel Genel Hastane",
      "address": "Yeni, Lise Cd. No:26, 07980 Kemer/Antalya",
      "location": {
        "lat": "36.598999",
        "lon": "30.5477575"
      }
    },
    {
      "id": "192",
      "city": "Antalya",
      "district": "Muratpaşa",
      "name": "Özel Lara Anadolu Hastanesi",
      "type": "Özel",
      "type-detail": "Özel Genel Hastane",
      "address": "Güzeloba, 2246. Sk. No:5, 07230 Muratpaşa/Antalya",
      "location": {
        "lat": "41.3124465",
        "lon": "27.9915148"
      }
    },
    {
      "id": "193",
      "city": "Antalya",
      "district": "Manavgat",
      "name": "Özel Manavgat Eslem Hastanesi",
      "type": "Özel",
      "type-detail": "Özel Genel Hastane",
      "address": "Sarılar, 3122. Sokak 4/1, 07600 Manavgat/Antalya",
      "location": {
        "lat": "36.7940326",
        "lon": "31.4045722"
      }
    },
    {
      "id": "194",
      "city": "Antalya",
      "district": "Manavgat",
      "name": "Özel Manavgat Yaşam Hastanesi",
      "type": "Özel",
      "type-detail": "Özel Genel Hastane",
      "address": "Kavaklı, Hasan Fehmi Boztepe Cd. No:176, 07600 Manavgat/Antalya",
      "location": {
        "lat": "36.7915656",
        "lon": "31.4122432"
      }
    },
    {
      "id": "195",
      "city": "Antalya",
      "district": "Korkuteli",
      "name": "Özel Medi Yaşam Hastanesi",
      "type": "Özel",
      "type-detail": "Özel Genel Hastane",
      "address": "Varsak Karşıyaka, Karşıyaka, İstiklal Cd. No:46, 07210 Kepez/Antalya",
      "location": {
        "lat": "36.9869824",
        "lon": "30.1040758"
      }
    },
    {
      "id": "196",
      "city": "Antalya",
      "district": "Muratpaşa",
      "name": "Özel Medicalpark Antalya Hastanesi",
      "type": "Özel",
      "type-detail": "Özel Genel Hastane",
      "address": "Fener, Tekelioğlu Cd. No:7, 07160 Muratpaşa/Antalya",
      "location": {
        "lat": "36.856445",
        "lon": "30.7364178"
      }
    },
    {
      "id": "197",
      "city": "Antalya",
      "district": "Kumluca",
      "name": "Özel Medikum Hastanesi",
      "type": "Özel",
      "type-detail": "Özel Genel Hastane",
      "address": "Hacıveliler, Merkez Sokak No:2, 07350 Kumluca/Antalya",
      "location": {
        "lat": "36.3678025",
        "lon": "30.2669779"
      }
    },
    {
      "id": "198",
      "city": "Antalya",
      "district": "Muratpaşa",
      "name": "Özel Medstar Antalya Hastanesi",
      "type": "Özel",
      "type-detail": "Özel Genel Hastane",
      "address": "Yıldız, Yıldız Mh Yıldız Cd, 220. Sk. No 19, 07050 Muratpaşa/Antalya",
      "location": {
        "lat": "36.8941891",
        "lon": "30.6746964"
      }
    },
    {
      "id": "199",
      "city": "Antalya",
      "district": "Muratpaşa",
      "name": "Özel Medstar Topçular Hastanesi",
      "type": "Özel",
      "type-detail": "Özel Genel Hastane",
      "address": "Tarım, Perge Blv. No:19, 07200 Muratpaşa/Antalya",
      "location": {
        "lat": "36.8854904",
        "lon": "30.729714"
      }
    },
    {
      "id": "200",
      "city": "Antalya",
      "district": "Kepez",
      "name": "Özel Memorıal Antalya Hastanesi",
      "type": "Özel",
      "type-detail": "Özel Genel Hastane",
      "address": "Zafer Mah. Yıldırım Beyazıt Cad. No: 91, Dokuma, 07025 Kepez/Antalya",
      "location": {
        "lat": "36.9176165",
        "lon": "30.68317"
      }
    },
    {
      "id": "201",
      "city": "Antalya",
      "district": "Kepez",
      "name": "Özel Ofm Antalya Hastanesi",
      "type": "Özel",
      "type-detail": "Özel Genel Hastane",
      "address": "Yükseliş, Mehmet Akif Cd. No:96, 07020 Kepez/Antalya",
      "location": {
        "lat": "36.9142613",
        "lon": "30.6806393"
      }
    },
    {
      "id": "202",
      "city": "Antalya",
      "district": "Konyaaltı",
      "name": "Özel Olimpos Hastanesi",
      "type": "Özel",
      "type-detail": "Özel Genel Hastane",
      "address": "Öğretmenevleri, 460. Sk. No:48, 07070 Konyaaltı/Antalya",
      "location": {
        "lat": "36.8708153",
        "lon": "30.623479"
      }
    },
    {
      "id": "203",
      "city": "Antalya",
      "district": "Muratpaşa",
      "name": "Özel Opera Yaşam Hastanesi",
      "type": "Özel",
      "type-detail": "Özel Genel Hastane",
      "address": "Cumhuriyet, 629. Sk. No:16, 07160 Muratpaşa/Antalya",
      "location": {
        "lat": "36.9017747",
        "lon": "30.6884905"
      }
    },
    {
      "id": "204",
      "city": "Antalya",
      "district": "Döşemealtı",
      "name": "Özel Termessos Hastanesi",
      "type": "Özel",
      "type-detail": "Özel Genel Hastane",
      "address": "Yeniköy, 106. Sk. No:11, 07190 Döşemealtı/Antalya",
      "location": {
        "lat": "37.0351908",
        "lon": "30.4510881"
      }
    },
    {
      "id": "205",
      "city": "Antalya",
      "district": "Konyaaltı",
      "name": "Özel Uncalı Meydan Hastanesi",
      "type": "Özel",
      "type-detail": "Özel Genel Hastane",
      "address": "Molla Yusuf, 1425. Sk. No:9, 07070 Bahtılı Köyü Köyü/Konyaaltı/Antalya",
      "location": {
        "lat": "36.8930558",
        "lon": "30.6106253"
      }
    },
    {
      "id": "206",
      "city": "Antalya",
      "district": "Alanya",
      "name": "Özelalanya Yaşam Hastanesi",
      "type": "Özel",
      "type-detail": "Özel Genel Hastane",
      "address": "Şekerhane, Refik Bakalım Sk., 07400 Alanya/Antalya",
      "location": {
        "lat": "36.5476322",
        "lon": "31.9914968"
      }
    },
    {
      "id": "207",
      "city": "Antalya",
      "district": "Manavgat",
      "name": "Side Özel Anadolu Hastanesi",
      "type": "Özel",
      "type-detail": "Özel Genel Hastane",
      "address": "55 Side Bulvarı Yalı Mahallesi, 07330 Antalya",
      "location": {
        "lat": "36.786501",
        "lon": "31.3853196"
      }
    },
    {
      "id": "208",
      "city": "Antalya",
      "district": "Kepez",
      "name": "Özel Dünya Göz Hastanesi Antalya",
      "type": "Özel",
      "type-detail": "Özel Göz Hastanesi",
      "address": "Zafer, Yıldırım Beyazıt Cd. No: 93, 07020 Kepez/Antalya",
      "location": {
        "lat": "36.918036",
        "lon": "30.6833538"
      }
    },
    {
      "id": "209",
      "city": "Antalya",
      "district": "Kepez",
      "name": "Özel Vitale Kadın Hastalıkları Ve Doğum Hastanesi",
      "type": "Özel",
      "type-detail": "Özel Kadın Hastalıkları ve Doğum Hastane",
      "address": "Kanal, Halide Edip Cd. No:5, 07080 Kepez/Antalya",
      "location": {
        "lat": "36.9178161",
        "lon": "30.6649462"
      }
    },
    {
      "id": "210",
      "city": "Ardahan",
      "district": "Posof",
      "name": "Posof İlçe Devlet Hastanesi",
      "type": "Devlet",
      "type-detail": "Entegre",
      "address": "Merkez, 75800 Posof/Ardahan",
      "location": {
        "lat": "41.508303",
        "lon": "42.718094"
      }
    },
    {
      "id": "211",
      "city": "Ardahan",
      "district": "Çıldır",
      "name": "Çıldır İlçe Devlet Hastanesi",
      "type": "Devlet",
      "type-detail": "Entegre",
      "address": "Yeni, 75400 Çıldır/Ardahan",
      "location": {
        "lat": "41.1227462",
        "lon": "43.1282766"
      }
    },
    {
      "id": "212",
      "city": "Ardahan",
      "district": "Göle",
      "name": "Göle Devlet Hastanesi",
      "type": "Devlet",
      "type-detail": "Genel Hastane",
      "address": "Salim Bey, Oltu Cad. No:93, 75700 Okçu/Göle/Ardahan",
      "location": {
        "lat": "40.7878522",
        "lon": "42.6130271"
      }
    },
    {
      "id": "213",
      "city": "Ardahan",
      "district": "Merkez",
      "name": "Ardahan Devlet Hastanesi",
      "type": "Devlet",
      "type-detail": "Genel Hastane",
      "address": "İnönü mah., Sugöze, 75000 Ardahan Merkez/Ardahan",
      "location": {
        "lat": "41.0926788",
        "lon": "42.6607528"
      }
    },
    {
      "id": "214",
      "city": "Artvin",
      "district": "Ardanuç",
      "name": "Ardanuç İlçe Devlet Hastanesi",
      "type": "Devlet",
      "type-detail": "Entegre",
      "address": "Merkez, 08390 Ardanuç/Artvin",
      "location": {
        "lat": "41.1299413",
        "lon": "42.0645661"
      }
    },
    {
      "id": "215",
      "city": "Artvin",
      "district": "Murgul",
      "name": "Murgul İlçe Devlet Hastanesi",
      "type": "Devlet",
      "type-detail": "Entegre",
      "address": "Küre, Sağlık Sk., 08500 Küre/Murgul/Artvin",
      "location": {
        "lat": "41.2771738",
        "lon": "41.5521828"
      }
    },
    {
      "id": "216",
      "city": "Artvin",
      "district": "Şavşat",
      "name": "Şavşat Devlet Hastanesi",
      "type": "Devlet",
      "type-detail": "Genel Hastane",
      "address": "Dış Kapı, Yeniköy Efkar Tepesi Mevki, Bülent Ecevit Cd. No:60, 08700 Şavşat/Artvin",
      "location": {
        "lat": "41.2567876",
        "lon": "42.3405463"
      }
    },
    {
      "id": "217",
      "city": "Artvin",
      "district": "Arhavi",
      "name": "Arhavi Devlet Hastanesi",
      "type": "Devlet",
      "type-detail": "Genel Hastane",
      "address": "Boğaziçi, Atatürk Blv., 08200 Arhavi/Artvin",
      "location": {
        "lat": "41.3512062",
        "lon": "41.2894751"
      }
    },
    {
      "id": "218",
      "city": "Artvin",
      "district": "Hopa",
      "name": "Hopa Devlet Hastanesi",
      "type": "Devlet",
      "type-detail": "Genel Hastane",
      "address": "Sundura, Hopa Artvin Yolu, 08600 Hopa/Artvin",
      "location": {
        "lat": "41.3871105",
        "lon": "41.4400613"
      }
    },
    {
      "id": "219",
      "city": "Artvin",
      "district": "Merkez",
      "name": "Artvin Devlet Hastanesi",
      "type": "Devlet",
      "type-detail": "Genel Hastane",
      "address": "Çarşı, Hastane Cd. No:7, 08000 Artvin Merkez/Artvin",
      "location": {
        "lat": "41.1829715",
        "lon": "41.8086473"
      }
    },
    {
      "id": "220",
      "city": "Artvin",
      "district": "Yusufeli",
      "name": "Yusufeli Devlet Hastanesi",
      "type": "Devlet",
      "type-detail": "Genel Hastane",
      "address": "Merkez, 08800 Yusufeli/Artvin",
      "location": {
        "lat": "40.8097179",
        "lon": "41.5229263"
      }
    },
    {
      "id": "221",
      "city": "Artvin",
      "district": "Borçka",
      "name": "Borçka Devlet Hastanesi",
      "type": "Devlet",
      "type-detail": "Genel Hastane",
      "address": "Aksu, 08400 Borçka/Artvin",
      "location": {
        "lat": "41.3548715",
        "lon": "41.669739"
      }
    },
    {
      "id": "222",
      "city": "Aydın",
      "district": "Bozdoğan",
      "name": "Bozdoğan Rasim Menteşe İlçe Devlet Hastanesi",
      "type": "Devlet",
      "type-detail": "Entegre",
      "address": "Çarşı, 21. Sk., 09760 Bozdoğan/Aydın",
      "location": {
        "lat": "37.6750309",
        "lon": "28.307269"
      }
    },
    {
      "id": "223",
      "city": "Aydın",
      "district": "Koçarlı",
      "name": "Koçarlı İlçe Devlet Hastanesi",
      "type": "Devlet",
      "type-detail": "Entegre",
      "address": "Orta, İncirliova Koçarlı Yolu, 09970 Koçarlı/Aydın ",
      "location": {
        "lat": "37.7696536",
        "lon": "27.6987292"
      }
    },
    {
      "id": "224",
      "city": "Aydın",
      "district": "Sultanhisar",
      "name": "Sultanhisar İlçe Devlet Hastanesi",
      "type": "Devlet",
      "type-detail": "Entegre",
      "address": "Zafer, 09470 Sultanhisar/Aydın",
      "location": {
        "lat": "37.8853324",
        "lon": "28.1409532"
      }
    },
    {
      "id": "225",
      "city": "Aydın",
      "district": "Buharkent",
      "name": "Buharkent İlçe Devlet Hastanesi",
      "type": "Devlet",
      "type-detail": "Entegre",
      "address": "İstiklal, 25. Sk., 09670 Buharkent/Aydın",
      "location": {
        "lat": "37.9699886",
        "lon": "28.7313202"
      }
    },
    {
      "id": "226",
      "city": "Aydın",
      "district": "Yenipazar",
      "name": "Aydın Yenipazar İlçe Devlet Hastanesi",
      "type": "Devlet",
      "type-detail": "Entegre",
      "address": "Doğu, 09350 Yenipazar/Aydın",
      "location": {
        "lat": "37.8247254",
        "lon": "28.1950611"
      }
    },
    {
      "id": "227",
      "city": "Aydın",
      "district": "Karpuzlu",
      "name": "Karpuzlu İlçe Devlet Hastanesi",
      "type": "Devlet",
      "type-detail": "Entegre",
      "address": "Yeni, Barbaros Cd. No:26, 09540 Karpuzlu/Aydın",
      "location": {
        "lat": "37.5566906",
        "lon": "27.8260322"
      }
    },
    {
      "id": "228",
      "city": "Aydın",
      "district": "Köşk",
      "name": "Köşk Devlet Hastanesi",
      "type": "Devlet",
      "type-detail": "Entegre",
      "address": "Çarşı, Hisar Sk, 09570 Köşk/Aydın",
      "location": {
        "lat": "37.8560237",
        "lon": "28.0451245"
      }
    },
    {
      "id": "229",
      "city": "Aydın",
      "district": "Kuyucak",
      "name": "Kuyucak İlçe Devlet Hastanesi",
      "type": "Devlet",
      "type-detail": "Entegre",
      "address": "Fatih, Hastane Cd. No:8, 09930 Kuyucak/Aydın",
      "location": {
        "lat": "37.9115636",
        "lon": "28.4549822"
      }
    },
    {
      "id": "230",
      "city": "Aydın",
      "district": "Nazilli",
      "name": "Nazilli Devlet Hastanesi",
      "type": "Devlet",
      "type-detail": "Genel Hastane",
      "address": "Yeşil, 622. Sk. No:2, 09800 Nazilli/Aydın",
      "location": {
        "lat": "37.9210236",
        "lon": "28.3281902"
      }
    },
    {
      "id": "231",
      "city": "Aydın",
      "district": "Söke",
      "name": "Söke Fehime Faik Kocagöz Devlet Hastanesi",
      "type": "Devlet",
      "type-detail": "Genel Hastane",
      "address": "Fevzipaşa, Faik Kocagöz Cd. No:16, 09200 Söke/Aydın",
      "location": {
        "lat": "37.7650793",
        "lon": "27.3940237"
      }
    },
    {
      "id": "232",
      "city": "Aydın",
      "district": "Kuşadası",
      "name": "Kuşadası Devlet Hastanesi",
      "type": "Devlet",
      "type-detail": "Genel Hastane",
      "address": "Türkmen, Türkmen mah., Hülya Koçyiğit Bulv. Bayraklı Dede Mevkii, Hülya Koçyiğit Blv No:32, 09400 Kuşadası/Aydın",
      "location": {
        "lat": "37.8784566",
        "lon": "27.2574392"
      }
    },
    {
      "id": "233",
      "city": "Aydın",
      "district": "Çine",
      "name": "Çine Devlet Hastanesi",
      "type": "Devlet",
      "type-detail": "Genel Hastane",
      "address": "Şevketiye, 278. Sk. No:2, 09500 Çine/Aydın",
      "location": {
        "lat": "37.6077877",
        "lon": "28.0502593"
      }
    },
    {
      "id": "234",
      "city": "Aydın",
      "district": "Efeler",
      "name": "Aydın Devlet Hastanesi",
      "type": "Devlet",
      "type-detail": "Genel Hastane",
      "address": "Hasanefendi - Ramazan Paşa, Mahallesi, Kızılay Cd. No:13, 09100 Efeler/Aydın",
      "location": {
        "lat": "37.8486254",
        "lon": "27.8261506"
      }
    },
    {
      "id": "235",
      "city": "Aydın",
      "district": "Didim",
      "name": "Didim Devlet Hastanesi",
      "type": "Devlet",
      "type-detail": "Genel Hastane",
      "address": "Cumhuriyet mahallesi No:303, 09270 Didim/Aydın",
      "location": {
        "lat": "37.3717065",
        "lon": "27.2649219"
      }
    },
    {
      "id": "236",
      "city": "Aydın",
      "district": "Efeler",
      "name": "Aydın Atatürk Devlet Hastanesi",
      "type": "Devlet",
      "type-detail": "Genel Hastane",
      "address": "Kurtuluş, 09020 Efeler/Aydın",
      "location": {
        "lat": "37.8403516",
        "lon": "27.8289031"
      }
    },
    {
      "id": "237",
      "city": "Aydın",
      "district": "Germencik",
      "name": "Germencik Devlet Hastanesi",
      "type": "Devlet",
      "type-detail": "Genel Hastane",
      "address": "İstasyon, Kaymakam Muammer Kutlu Sk. D:1, 09700 Germencik/Aydın",
      "location": {
        "lat": "37.8741526",
        "lon": "27.5818943"
      }
    },
    {
      "id": "238",
      "city": "Aydın",
      "district": "Efeler",
      "name": "Aydın Kadın Doğum Ve Çocuk Hastalıkları Hastanesi",
      "type": "Devlet",
      "type-detail": "Kadın Doğum ve Çocuk H.",
      "address": "Merkez, Atatürk Blv. No:96, 09020 Efeler/Aydın",
      "location": {
        "lat": "37.8420786",
        "lon": "27.8222542"
      }
    },
    {
      "id": "239",
      "city": "Aydın",
      "district": "Efeler",
      "name": "Özel Ege Liva Hastanesi",
      "type": "Özel",
      "type-detail": "Özel Genel Hastane",
      "address": "Adnan Menderes, 533. Sk. No:4, 09100 Efeler/Aydın",
      "location": {
        "lat": "41.3124465",
        "lon": "27.9915148"
      }
    },
    {
      "id": "240",
      "city": "Aydın",
      "district": "Söke",
      "name": "Özel Egemed Hastanesi",
      "type": "Özel",
      "type-detail": "Özel Genel Hastane",
      "address": "Yenicami Mah, Nihat Aşkın Cd. No:7, 09200 Söke/Aydın",
      "location": {
        "lat": "41.3124465",
        "lon": "27.9915148"
      }
    },
    {
      "id": "241",
      "city": "Aydın",
      "district": "Kuşadası",
      "name": "Özel Gözde Kuşadası Hastanesi",
      "type": "Özel",
      "type-detail": "Özel Genel Hastane",
      "address": "Türkmen, Rıza Saraç Cd. No:1, 09400 Kuşadası/Aydın",
      "location": {
        "lat": "41.3124465",
        "lon": "27.9915148"
      }
    },
    {
      "id": "242",
      "city": "Aydın",
      "district": "Kuşadası",
      "name": "Özel Egemed Kuşadası Hastanesi",
      "type": "Özel",
      "type-detail": "Özel Genel Hastane",
      "address": "Türkmen, No:21, Ant Sk., 09400 Kuşadası/Aydın",
      "location": {
        "lat": "37.8600362",
        "lon": "27.2653858"
      }
    },
    {
      "id": "243",
      "city": "Aydın",
      "district": "Efeler",
      "name": "Özel Medinova Hastanesi",
      "type": "Özel",
      "type-detail": "Özel Genel Hastane",
      "address": "Efeler, Dr. Serkan Kurnaz Cd No:13, 09020 Efeler/Aydın",
      "location": {
        "lat": "41.3124465",
        "lon": "27.9915148"
      }
    },
    {
      "id": "244",
      "city": "Aydın",
      "district": "Nazilli",
      "name": "Özel Referans Hastanesi",
      "type": "Özel",
      "type-detail": "Özel Genel Hastane",
      "address": "Yeni Sanayi, Denizli Karayolu Cad No:59, 09900 Nazilli/Aydın",
      "location": {
        "lat": "41.3124465",
        "lon": "27.9915148"
      }
    },
    {
      "id": "245",
      "city": "Aydın",
      "district": "Efeler",
      "name": "Özel Aydın Göz Hastanesi",
      "type": "Özel",
      "type-detail": "Özel Göz Hastanesi",
      "address": "İstiklal, Muğla Blv. No:40, 09020 Efeler/Aydın",
      "location": {
        "lat": "41.3124465",
        "lon": "27.9915148"
      }
    },
    {
      "id": "246",
      "city": "Balıkesir",
      "district": "Gömeç",
      "name": "Gömeç İlçe Devlet Hastanesi",
      "type": "Devlet",
      "type-detail": "Entegre",
      "address": "Kemalpaşa, Ayanoğlu Sk. No:14, 10715 Gömeç/Balıkesir",
      "location": {
        "lat": "39.3938625",
        "lon": "26.8333172"
      }
    },
    {
      "id": "247",
      "city": "Balıkesir",
      "district": "Kepsut",
      "name": "Kepsut İlçe Devlet Hastanesi",
      "type": "Devlet",
      "type-detail": "Entegre",
      "address": "Kasapzade, Şht. Yzb. Kamil Aşık Cd., 10660 Kepsut/Balıkesir",
      "location": {
        "lat": "39.688742",
        "lon": "28.1454379"
      }
    },
    {
      "id": "248",
      "city": "Balıkesir",
      "district": "Balya",
      "name": "Balya İlçe Devlet Hastanesi",
      "type": "Devlet",
      "type-detail": "Entegre",
      "address": "Enverpaşa, Atatürk Cd. No:14, 10840 Balya/Balıkesir",
      "location": {
        "lat": "39.7491471",
        "lon": "27.5677723"
      }
    },
    {
      "id": "249",
      "city": "Balıkesir",
      "district": "Marmara",
      "name": "Marmara Süleyman İlik İlçe Devlet Hastanesi",
      "type": "Devlet",
      "type-detail": "Entegre",
      "address": "Topağaç, Topağaç Köyü Yolu, 10360 Marmara/Balıkesir",
      "location": {
        "lat": "40.578832",
        "lon": "27.5597756"
      }
    },
    {
      "id": "250",
      "city": "Balıkesir",
      "district": "Sındırgı",
      "name": "Sındırgı Devlet Hastanesi",
      "type": "Devlet",
      "type-detail": "Genel Hastane",
      "address": "Camicedit, Sındırgı Devlet Hst., 10330 Sındırgı/Balıkesir",
      "location": {
        "lat": "39.2459582",
        "lon": "28.1664452"
      }
    },
    {
      "id": "251",
      "city": "Balıkesir",
      "district": "Susurluk",
      "name": "Susurluk Devlet Hastanesi",
      "type": "Devlet",
      "type-detail": "Genel Hastane",
      "address": "Han, Hastane Cd., 10600 Susurluk/Balıkesir",
      "location": {
        "lat": "39.9163253",
        "lon": "28.1410318"
      }
    },
    {
      "id": "252",
      "city": "Balıkesir",
      "district": "İvrindi",
      "name": "İvrindi Devlet Hastanesi",
      "type": "Devlet",
      "type-detail": "Genel Hastane",
      "address": "Kurtuluş, 46046 Sk, 10770 İvrindi/Balıkesir",
      "location": {
        "lat": "39.5946281",
        "lon": "27.4847831"
      }
    },
    {
      "id": "253",
      "city": "Balıkesir",
      "district": "Manyas",
      "name": "Manyas Devlet Hastanesi",
      "type": "Devlet",
      "type-detail": "Genel Hastane",
      "address": "Çarşı, Manyas Devlet Hst., 10470 Manyas/Balıkesir",
      "location": {
        "lat": "40.0425658",
        "lon": "27.9618332"
      }
    },
    {
      "id": "254",
      "city": "Balıkesir",
      "district": "Erdek",
      "name": "Erdek Neyyire Sıtkı Devlet Hastanesi",
      "type": "Devlet",
      "type-detail": "Genel Hastane",
      "address": "Yalı, Hükümet Cd. No:3, 10500 Erdek/Balıkesir",
      "location": {
        "lat": "40.3956283",
        "lon": "27.781818"
      }
    },
    {
      "id": "255",
      "city": "Balıkesir",
      "district": "Gönen",
      "name": "Gönen Devlet Hastanesi",
      "type": "Devlet",
      "type-detail": "Genel Hastane",
      "address": "Gündoğdu Prof. Işık Şenkaya Caddesi No:1, 10900 Gönen/Balıkesir",
      "location": {
        "lat": "40.1014472",
        "lon": "27.6676081"
      }
    },
    {
      "id": "256",
      "city": "Balıkesir",
      "district": "Havran",
      "name": "Havran Devlet Hastanesi",
      "type": "Devlet",
      "type-detail": "Genel Hastane",
      "address": "Mescit, 293. Sk. NO:12, 10560 Havran/Balıkesir",
      "location": {
        "lat": "39.5516971",
        "lon": "27.0866177"
      }
    },
    {
      "id": "257",
      "city": "Balıkesir",
      "district": "Burhaniye",
      "name": "Burhaniye Devlet Hastanesi",
      "type": "Devlet",
      "type-detail": "Genel Hastane",
      "address": "Öğretmenler, Ali Kemal Deveciler Blv. No:104, 10700 Burhaniye/Balıkesir",
      "location": {
        "lat": "39.4976858",
        "lon": "26.9548666"
      }
    },
    {
      "id": "258",
      "city": "Balıkesir",
      "district": "Dursunbey",
      "name": "Dursunbey Devlet Hastanesi",
      "type": "Devlet",
      "type-detail": "Genel Hastane",
      "address": "Cebeci, Taşköprü Cd. No:2, 10800 Dursunbey/Balıkesir",
      "location": {
        "lat": "39.5913976",
        "lon": "28.6209064"
      }
    },
    {
      "id": "259",
      "city": "Balıkesir",
      "district": "Edremit",
      "name": "Edremit Devlet Hastanesi",
      "type": "Devlet",
      "type-detail": "Genel Hastane",
      "address": "Cennet Ayağı Mahallesi, 781. Sokak No:7, 10300 Edremit/Balıkesir",
      "location": {
        "lat": "39.5767282",
        "lon": "27.0323714"
      }
    },
    {
      "id": "260",
      "city": "Balıkesir",
      "district": "Bigadiç",
      "name": "Bigadiç Devlet Hastanesi",
      "type": "Devlet",
      "type-detail": "Genel Hastane",
      "address": "Çavuş, 4, Gazi Blv. No: 4, 10440 Bigadiç/Balıkesir",
      "location": {
        "lat": "39.3999723",
        "lon": "28.116764"
      }
    },
    {
      "id": "261",
      "city": "Balıkesir",
      "district": "Ayvalık",
      "name": "Ayvalık Devlet Hastanesi",
      "type": "Devlet",
      "type-detail": "Genel Hastane",
      "address": "Yeni, Ahmet Taner Kışlalı Cd. No:17, 10400 Ayvalık/Balıkesir",
      "location": {
        "lat": "39.3211962",
        "lon": "26.6980662"
      }
    },
    {
      "id": "262",
      "city": "Balıkesir",
      "district": "Karesi",
      "name": "Balıkesir Devlet Hastanesi",
      "type": "Devlet",
      "type-detail": "Genel Hastane",
      "address": "Atatürk, Balıkesir Devlet Hst. Acil Servis İç Yolu 1-10, 10020 Karesi/Balıkesir",
      "location": {
        "lat": "39.6531467",
        "lon": "27.8819031"
      }
    },
    {
      "id": "263",
      "city": "Balıkesir",
      "district": "Bandırma",
      "name": "Bandırma Eğitim Ve Araştırma Hastanesi",
      "type": "Devlet",
      "type-detail": "Genel Hastane",
      "address": "Doğanpınar, Şehit Astsubay Mustafa Soner Varlık Caddesi No:75, 10200 Bandırma/Balıkesir",
      "location": {
        "lat": "40.3391761",
        "lon": "27.9246647"
      }
    },
    {
      "id": "264",
      "city": "Balıkesir",
      "district": "Altıeylül",
      "name": "Balıkesir Atatürk Şehir Hastanesi",
      "type": "Devlet",
      "type-detail": "Genel Hastane",
      "address": "Gaziosmanpaşa, 209. Sk. No:26, 10100 Altıeylül/Balıkesir",
      "location": {
        "lat": "39.6113176",
        "lon": "27.8798673"
      }
    },
    {
      "id": "265",
      "city": "Balıkesir",
      "district": "Savaştepe",
      "name": "Savaştepe Devlet Hastanesi",
      "type": "Devlet",
      "type-detail": "Genel Hastane",
      "address": "Fatih Dinçer Sokak No:29, Balıkesir",
      "location": {
        "lat": "39.3873904",
        "lon": "27.636986"
      }
    },
    {
      "id": "266",
      "city": "Balıkesir",
      "district": "Bandırma",
      "name": "Özel Bandırma Royal Hastanesi",
      "type": "Özel",
      "type-detail": "Özel Genel Hastane",
      "address": "Paşakonak, Sağlık Cd. NO:16, 10200 Bandırma/Balıkesir",
      "location": {
        "lat": "40.3407488",
        "lon": "27.955842"
      }
    },
    {
      "id": "267",
      "city": "Balıkesir",
      "district": "Edremit",
      "name": "Özel Edremit Körfez Hastanesi",
      "type": "Özel",
      "type-detail": "Özel Genel Hastane",
      "address": "Eroğlan, Çanakkale Yolu Cd. No:85, 10325 Edremit/Balıkesir",
      "location": {
        "lat": "39.5991203",
        "lon": "26.9909496"
      }
    },
    {
      "id": "268",
      "city": "Balıkesir",
      "district": "Altıeylül",
      "name": "Özel İzmiryolu Sevgi Hastanesi",
      "type": "Özel",
      "type-detail": "Özel Genel Hastane",
      "address": "Gaziosmanpaşa, Merkez, Yeni İzmir Cd 180/A, 10100 Altıeylül/Balıkesir",
      "location": {
        "lat": "39.6186716",
        "lon": "27.8790919"
      }
    },
    {
      "id": "269",
      "city": "Balıkesir",
      "district": "Karesi",
      "name": "Özel Sevgi Hastanesi",
      "type": "Özel",
      "type-detail": "Özel Genel Hastane",
      "address": "Paşa Alanı, 128. Sk., 10030 Karesi/Balıkesir",
      "location": {
        "lat": "39.6421133",
        "lon": "27.8581078"
      }
    },
    {
      "id": "270",
      "city": "Bartın",
      "district": "Ulus",
      "name": "Ulus Şehit Piyade Er Hasan Hüseyin Oğuz İlçe Devlet Hastanesi",
      "type": "Devlet",
      "type-detail": "Entegre",
      "address": "Mezgeller, Zübeyde Hanım Cd., 74600 Ulus/Bartın",
      "location": {
        "lat": "41.5808889",
        "lon": "32.624646"
      }
    },
    {
      "id": "271",
      "city": "Bartın",
      "district": "Amasra",
      "name": "Amasra İlçe Devlet Hastanesi",
      "type": "Devlet",
      "type-detail": "Entegre",
      "address": "Kaleşah, İsmet İnönü Cd. No:66/1, 74300 Amasra/Bartın",
      "location": {
        "lat": "41.7364514",
        "lon": "32.3823166"
      }
    },
    {
      "id": "272",
      "city": "Bartın",
      "district": "Merkez",
      "name": "Bartın Devlet Hastanesi",
      "type": "Devlet",
      "type-detail": "Genel Hastane",
      "address": "Tuna, 846. cadde no 15, 74100 Bartın Merkez/Bartın",
      "location": {
        "lat": "41.6277079",
        "lon": "32.3441887"
      }
    },
    {
      "id": "273",
      "city": "Batman",
      "district": "Hasankeyf",
      "name": "Hasankeyf İlçe Devlet Hastanesi",
      "type": "Devlet",
      "type-detail": "Entegre",
      "address": "Alaaddin Heskifi Cad. No:1, Hasankeyf/Batman",
      "location": {
        "lat": "37.7316835",
        "lon": "41.410274"
      }
    },
    {
      "id": "274",
      "city": "Batman",
      "district": "Beşiri",
      "name": "Beşiri İlçe Devlet Hastanesi",
      "type": "Devlet",
      "type-detail": "Entegre",
      "address": "Bağdu Mahallesi Abdullah Gül Caddesi No:20, 72200 Beşiri/Batman",
      "location": {
        "lat": "37.9213566",
        "lon": "41.2753353"
      }
    },
    {
      "id": "275",
      "city": "Batman",
      "district": "Kozluk",
      "name": "Kozluk Devlet Hastanesi",
      "type": "Devlet",
      "type-detail": "Genel Hastane",
      "address": "Yeni, Hastane Cd. NO:17, 72400 Kozluk/Batman",
      "location": {
        "lat": "38.1639427",
        "lon": "41.4895506"
      }
    },
    {
      "id": "276",
      "city": "Batman",
      "district": "Sason",
      "name": "Sason Devlet Hastanesi",
      "type": "Devlet",
      "type-detail": "Genel Hastane",
      "address": "Aşağı mah. Eski Tekel Cad., Sason/Batman",
      "location": {
        "lat": "38.3402344",
        "lon": "41.4019798"
      }
    },
    {
      "id": "277",
      "city": "Batman",
      "district": "Gercüş",
      "name": "Gercüş Devlet Hastanesi",
      "type": "Devlet",
      "type-detail": "Genel Hastane",
      "address": "Bağlarbaşı, Kazım Koyuncu Bulvarı No No:56, 72300 Gercüş/Batman",
      "location": {
        "lat": "37.5674801",
        "lon": "41.3758116"
      }
    },
    {
      "id": "278",
      "city": "Batman",
      "district": "Merkez",
      "name": "Batman Eğitim Ve Araştırma Hastanesi",
      "type": "Devlet",
      "type-detail": "Genel Hastane",
      "address": "Gültepe, Eflatun Cd. No:1, 72070 Batman Merkez/Batman",
      "location": {
        "lat": "37.9121503",
        "lon": "41.1289369"
      }
    },
    {
      "id": "279",
      "city": "Batman",
      "district": "Merkez",
      "name": "Batman İluh Devlet Hastanesi",
      "type": "Devlet",
      "type-detail": "Genel Hastane",
      "address": "Ziyagökalp Mh., Kıbrıs Şehitler Bulvarı, 72060 Merkez/Batman Merkez/Batman",
      "location": {
        "lat": "37.8896432",
        "lon": "41.1151936"
      }
    },
    {
      "id": "280",
      "city": "Batman",
      "district": "Merkez",
      "name": "Özel Batman Dünya Hastanesi",
      "type": "Özel",
      "type-detail": "Özel Genel Hastane",
      "address": "Çamlıtepe, Türkiye Petrolleri A. O. Blv. No:265, 72070 Batman Merkez/Batman",
      "location": {
        "lat": "37.9021761",
        "lon": "41.1326481"
      }
    },
    {
      "id": "281",
      "city": "Batman",
      "district": "Merkez",
      "name": "Özel Batman Hastanesi",
      "type": "Özel",
      "type-detail": "Özel Genel Hastane",
      "address": "Kültür, Turgut Özal Blv. No:293, 72060 Batman Merkez/Batman",
      "location": {
        "lat": "41.3124465",
        "lon": "27.9915148"
      }
    },